[
  {
    "code": "AF",
    "name": "Afghanistan",
    "capital": "Kabul",
    "currency": "AFN",
    "population": 43844000,
    "cities": [
      {
        "name": "Andkhōy",
        "lat": 36.95293,
        "lon": 65.12376
      },
      {
        "name": "Asadābād",
        "lat": 34.87311,
        "lon": 71.14697
      },
      {
        "name": "Aībak",
        "lat": 36.26468,
        "lon": 68.01551
      },
      {
        "name": "Baghlān",
        "lat": 36.13068,
        "lon": 68.70829
      },
      {
        "name": "Balkh",
        "lat": 36.75635,
        "lon": 66.8972
      },
      {
        "name": "Baraki Barak",
        "lat": 33.96744,
        "lon": 68.9492
      },
      {
        "name": "Bāmyān",
        "lat": 34.82156,
        "lon": 67.82734
      },
      {
        "name": "Bāzār-e Yakāwlang",
        "lat": 34.73525,
        "lon": 66.97379
      },
      {
        "name": "Bāzārak",
        "lat": 35.31292,
        "lon": 69.51519
      },
      {
        "name": "Charikar",
        "lat": 35.01361,
        "lon": 69.17139
      },
      {
        "name": "Eslam Qaleh",
        "lat": 34.66667,
        "lon": 61.06667
      },
      {
        "name": "Farah",
        "lat": 32.37451,
        "lon": 62.11638
      },
      {
        "name": "Fayzabad",
        "lat": 37.11664,
        "lon": 70.58002
      },
      {
        "name": "Gardez",
        "lat": 33.59744,
        "lon": 69.22592
      },
      {
        "name": "Gereshk",
        "lat": 31.82089,
        "lon": 64.57005
      },
      {
        "name": "Ghazni",
        "lat": 33.55391,
        "lon": 68.42096
      },
      {
        "name": "Ghormach",
        "lat": 35.73062,
        "lon": 63.78264
      },
      {
        "name": "Herāt",
        "lat": 34.34817,
        "lon": 62.19967
      },
      {
        "name": "Jabal os Saraj",
        "lat": 35.11833,
        "lon": 69.23778
      },
      {
        "name": "Jalālābād",
        "lat": 34.42647,
        "lon": 70.45153
      },
      {
        "name": "Kabul",
        "lat": 34.52813,
        "lon": 69.17233
      },
      {
        "name": "Kandahār",
        "lat": 31.61332,
        "lon": 65.71013
      },
      {
        "name": "Karukh",
        "lat": 34.48108,
        "lon": 62.5863
      },
      {
        "name": "Khanabad",
        "lat": 36.68304,
        "lon": 69.11279
      },
      {
        "name": "Khulm",
        "lat": 36.69736,
        "lon": 67.69826
      },
      {
        "name": "Khān Neshīn",
        "lat": 30.5488,
        "lon": 63.7888
      },
      {
        "name": "Khāsh",
        "lat": 31.52919,
        "lon": 62.79055
      },
      {
        "name": "Khōst",
        "lat": 33.33951,
        "lon": 69.92041
      },
      {
        "name": "Kunduz",
        "lat": 36.72895,
        "lon": 68.857
      },
      {
        "name": "Kushk",
        "lat": 33.29565,
        "lon": 61.95221
      },
      {
        "name": "Lashkar Gāh",
        "lat": 31.59382,
        "lon": 64.37161
      },
      {
        "name": "Markaz-e Woluswalī-ye Āchīn",
        "lat": 34.12583,
        "lon": 70.70778
      },
      {
        "name": "Maymana",
        "lat": 35.92139,
        "lon": 64.78361
      },
      {
        "name": "Mazār-e Sharīf",
        "lat": 36.70904,
        "lon": 67.11087
      },
      {
        "name": "Mehtar Lām",
        "lat": 34.67139,
        "lon": 70.20944
      },
      {
        "name": "Nahrīn",
        "lat": 36.0649,
        "lon": 69.13343
      },
      {
        "name": "Nīlī",
        "lat": 33.72178,
        "lon": 66.13023
      },
      {
        "name": "Paghmān",
        "lat": 34.58787,
        "lon": 68.95091
      },
      {
        "name": "Pul-e Khumrī",
        "lat": 35.94458,
        "lon": 68.71512
      },
      {
        "name": "Qarqīn",
        "lat": 37.41853,
        "lon": 66.04358
      },
      {
        "name": "Qarāwul",
        "lat": 37.21959,
        "lon": 68.7802
      },
      {
        "name": "Rustāq",
        "lat": 37.12604,
        "lon": 69.83045
      },
      {
        "name": "Sang-e Chārak",
        "lat": 35.84972,
        "lon": 66.43694
      },
      {
        "name": "Sar-e Pul",
        "lat": 36.21544,
        "lon": 65.93249
      },
      {
        "name": "Shahrak",
        "lat": 34.10737,
        "lon": 64.3052
      },
      {
        "name": "Shibirghān",
        "lat": 36.66757,
        "lon": 65.7529
      },
      {
        "name": "Shīnḏanḏ",
        "lat": 33.30294,
        "lon": 62.1474
      },
      {
        "name": "Taloqan",
        "lat": 36.73605,
        "lon": 69.53451
      },
      {
        "name": "Zaranj",
        "lat": 30.95962,
        "lon": 61.86037
      },
      {
        "name": "Ārt Khwājah",
        "lat": 37.08571,
        "lon": 69.47958
      },
      {
        "name": "Āsmār",
        "lat": 35.03333,
        "lon": 71.35809
      }
    ]
  },
  {
    "code": "AL",
    "name": "Albania",
    "capital": "Tirana",
    "currency": "ALL",
    "population": 2363314,
    "cities": [
      {
        "name": "Berat",
        "lat": 40.70583,
        "lon": 19.95222
      },
      {
        "name": "Bulqizë",
        "lat": 41.49167,
        "lon": 20.22194
      },
      {
        "name": "Durrës",
        "lat": 41.32355,
        "lon": 19.45469
      },
      {
        "name": "Elbasan",
        "lat": 41.11138,
        "lon": 20.08224
      },
      {
        "name": "Fier",
        "lat": 40.7251,
        "lon": 19.55823
      },
      {
        "name": "Fier-Çifçi",
        "lat": 40.71667,
        "lon": 19.56667
      },
      {
        "name": "Gjirokastër",
        "lat": 40.07583,
        "lon": 20.13889
      },
      {
        "name": "Kavajë",
        "lat": 41.18556,
        "lon": 19.55694
      },
      {
        "name": "Korçë",
        "lat": 40.61861,
        "lon": 20.78083
      },
      {
        "name": "Krujë",
        "lat": 41.50917,
        "lon": 19.79278
      },
      {
        "name": "Kukës",
        "lat": 42.07694,
        "lon": 20.42194
      },
      {
        "name": "Kuçovë",
        "lat": 40.80028,
        "lon": 19.91667
      },
      {
        "name": "Lezhë",
        "lat": 41.78361,
        "lon": 19.64361
      },
      {
        "name": "Librazhd",
        "lat": 41.17944,
        "lon": 20.315
      },
      {
        "name": "Lushnjë",
        "lat": 40.94194,
        "lon": 19.705
      },
      {
        "name": "Patos",
        "lat": 40.68333,
        "lon": 19.61944
      },
      {
        "name": "Patos Fshat",
        "lat": 40.64278,
        "lon": 19.65083
      },
      {
        "name": "Peqin",
        "lat": 41.04611,
        "lon": 19.75111
      },
      {
        "name": "Pogradec",
        "lat": 40.9025,
        "lon": 20.6525
      },
      {
        "name": "Sarandë",
        "lat": 39.87534,
        "lon": 20.00477
      },
      {
        "name": "Shkodër",
        "lat": 42.06828,
        "lon": 19.51258
      },
      {
        "name": "Tirana",
        "lat": 41.32744,
        "lon": 19.81866
      },
      {
        "name": "Vlorë",
        "lat": 40.4696,
        "lon": 19.48379
      }
    ]
  },
  {
    "code": "DZ",
    "name": "Algeria",
    "capital": "Algiers",
    "currency": "DZD",
    "population": 47400000,
    "cities": [
      {
        "name": "Abou el Hassan",
        "lat": 36.41657,
        "lon": 1.19616
      },
      {
        "name": "Adrar",
        "lat": 27.87429,
        "lon": -0.29388
      },
      {
        "name": "Aflou",
        "lat": 34.11279,
        "lon": 2.10228
      },
      {
        "name": "Ahmed Bel Hadj",
        "lat": 36.80146,
        "lon": 7.60811
      },
      {
        "name": "Ain el Hadjel",
        "lat": 35.67003,
        "lon": 3.88153
      },
      {
        "name": "Akbou",
        "lat": 36.4575,
        "lon": 4.53494
      },
      {
        "name": "Algiers",
        "lat": 36.73225,
        "lon": 3.08746
      },
      {
        "name": "Ali Mendjeli",
        "lat": 36.2459,
        "lon": 6.5671
      },
      {
        "name": "Amizour",
        "lat": 36.64022,
        "lon": 4.90131
      },
      {
        "name": "Ammi Moussa",
        "lat": 35.86781,
        "lon": 1.11143
      },
      {
        "name": "Annaba",
        "lat": 36.9,
        "lon": 7.76667
      },
      {
        "name": "Aoulef",
        "lat": 26.96667,
        "lon": 1.08333
      },
      {
        "name": "Arbatache",
        "lat": 36.63773,
        "lon": 3.37127
      },
      {
        "name": "Arhribs",
        "lat": 36.79361,
        "lon": 4.31158
      },
      {
        "name": "Arris",
        "lat": 35.25881,
        "lon": 6.34706
      },
      {
        "name": "Arzew",
        "lat": 35.85048,
        "lon": -0.318
      },
      {
        "name": "Assi Bou Nif",
        "lat": 35.69222,
        "lon": -0.49944
      },
      {
        "name": "Azazga",
        "lat": 36.74472,
        "lon": 4.37222
      },
      {
        "name": "Azzaba",
        "lat": 36.73944,
        "lon": 7.10528
      },
      {
        "name": "Aïn Arnat",
        "lat": 36.18683,
        "lon": 5.31347
      },
      {
        "name": "Aïn Bessem",
        "lat": 36.29333,
        "lon": 3.67319
      },
      {
        "name": "Aïn Beïda",
        "lat": 35.79639,
        "lon": 7.39278
      },
      {
        "name": "Aïn Defla",
        "lat": 36.26405,
        "lon": 1.9679
      },
      {
        "name": "Aïn Fakroun",
        "lat": 35.97108,
        "lon": 6.87374
      },
      {
        "name": "Aïn Kercha",
        "lat": 35.92472,
        "lon": 6.69528
      },
      {
        "name": "Aïn M’Lila",
        "lat": 36.03687,
        "lon": 6.57219
      },
      {
        "name": "Aïn Oulmene",
        "lat": 35.92296,
        "lon": 5.29604
      },
      {
        "name": "Aïn Oussera",
        "lat": 35.45139,
        "lon": 2.90583
      },
      {
        "name": "Aïn Sefra",
        "lat": 32.75,
        "lon": -0.58333
      },
      {
        "name": "Aïn Smara",
        "lat": 36.2674,
        "lon": 6.50135
      },
      {
        "name": "Aïn Taya",
        "lat": 36.79333,
        "lon": 3.28694
      },
      {
        "name": "Aïn Temouchent",
        "lat": 35.29749,
        "lon": -1.14037
      },
      {
        "name": "Aïn Touta",
        "lat": 35.37675,
        "lon": 5.90001
      },
      {
        "name": "Aïn el Bya",
        "lat": 35.80389,
        "lon": -0.30178
      },
      {
        "name": "Bab Ezzouar",
        "lat": 36.72615,
        "lon": 3.18291
      },
      {
        "name": "Babor",
        "lat": 36.48994,
        "lon": 5.5393
      },
      {
        "name": "Baraki",
        "lat": 36.66655,
        "lon": 3.09606
      },
      {
        "name": "Barbacha",
        "lat": 36.56667,
        "lon": 4.96667
      },
      {
        "name": "Barika",
        "lat": 35.38901,
        "lon": 5.36584
      },
      {
        "name": "Batna City",
        "lat": 35.55597,
        "lon": 6.17414
      },
      {
        "name": "Ben Mehidi",
        "lat": 36.76967,
        "lon": 7.90641
      },
      {
        "name": "Beni Amrane",
        "lat": 36.66774,
        "lon": 3.59115
      },
      {
        "name": "Beni Douala",
        "lat": 36.61954,
        "lon": 4.08282
      },
      {
        "name": "Beni Mered",
        "lat": 36.52389,
        "lon": 2.86131
      },
      {
        "name": "Beni Mester",
        "lat": 34.87045,
        "lon": -1.42319
      },
      {
        "name": "Beni Saf",
        "lat": 35.30099,
        "lon": -1.38226
      },
      {
        "name": "Beni Tamou",
        "lat": 36.53833,
        "lon": 2.82174
      },
      {
        "name": "Bensekrane",
        "lat": 35.07465,
        "lon": -1.22431
      },
      {
        "name": "Berrahal",
        "lat": 36.83528,
        "lon": 7.45333
      },
      {
        "name": "Berriane",
        "lat": 32.82648,
        "lon": 3.76689
      },
      {
        "name": "Berrouaghia",
        "lat": 36.13516,
        "lon": 2.91085
      },
      {
        "name": "Besbes",
        "lat": 36.70222,
        "lon": 7.84722
      },
      {
        "name": "Bir el Ater",
        "lat": 34.74488,
        "lon": 8.06024
      },
      {
        "name": "Bir el Djir",
        "lat": 35.72,
        "lon": -0.545
      },
      {
        "name": "Birine",
        "lat": 35.635,
        "lon": 3.225
      },
      {
        "name": "Birkhadem",
        "lat": 36.71499,
        "lon": 3.05002
      },
      {
        "name": "Biskra",
        "lat": 34.85038,
        "lon": 5.72805
      },
      {
        "name": "Blida",
        "lat": 36.47004,
        "lon": 2.8277
      },
      {
        "name": "Boghni",
        "lat": 36.54222,
        "lon": 3.95306
      },
      {
        "name": "Bordj Bou Arreridj",
        "lat": 36.07389,
        "lon": 4.76139
      },
      {
        "name": "Bordj Ghdir",
        "lat": 35.90111,
        "lon": 4.89806
      },
      {
        "name": "Bordj Menaïel",
        "lat": 36.74328,
        "lon": 3.7173
      },
      {
        "name": "Bordj Zemoura",
        "lat": 36.27462,
        "lon": 4.85668
      },
      {
        "name": "Bordj el Kiffan",
        "lat": 36.74871,
        "lon": 3.19249
      },
      {
        "name": "Bou Hanifia el Hamamat",
        "lat": 35.31473,
        "lon": -0.05037
      },
      {
        "name": "Bou Ismaïl",
        "lat": 36.64262,
        "lon": 2.69007
      },
      {
        "name": "Bou Saâda",
        "lat": 35.20855,
        "lon": 4.17402
      },
      {
        "name": "Bou Tlelis",
        "lat": 35.57272,
        "lon": -0.8996
      },
      {
        "name": "Boudjima",
        "lat": 36.80218,
        "lon": 4.15187
      },
      {
        "name": "Boudouaou",
        "lat": 36.72735,
        "lon": 3.40995
      },
      {
        "name": "Boufarik",
        "lat": 36.57413,
        "lon": 2.91214
      },
      {
        "name": "Bougaa",
        "lat": 36.33293,
        "lon": 5.08843
      },
      {
        "name": "Bougara",
        "lat": 36.54178,
        "lon": 3.081
      },
      {
        "name": "Bouinan",
        "lat": 36.53167,
        "lon": 2.99194
      },
      {
        "name": "Boukadir",
        "lat": 36.06629,
        "lon": 1.12602
      },
      {
        "name": "Boumahra Ahmed",
        "lat": 36.45833,
        "lon": 7.51389
      },
      {
        "name": "Boumerdas",
        "lat": 36.76639,
        "lon": 3.47717
      },
      {
        "name": "Bouïra",
        "lat": 36.37489,
        "lon": 3.902
      },
      {
        "name": "Boû Arfa",
        "lat": 36.46298,
        "lon": 2.81464
      },
      {
        "name": "Brezina",
        "lat": 33.09892,
        "lon": 1.26082
      },
      {
        "name": "Béchar",
        "lat": 31.61667,
        "lon": -2.21667
      },
      {
        "name": "Béjaïa",
        "lat": 36.75587,
        "lon": 5.08433
      },
      {
        "name": "Chabet el Ameur",
        "lat": 36.63709,
        "lon": 3.69474
      },
      {
        "name": "Charef",
        "lat": 34.62098,
        "lon": 2.79503
      },
      {
        "name": "Chebli",
        "lat": 36.57722,
        "lon": 3.00917
      },
      {
        "name": "Chelghoum el Aïd",
        "lat": 36.16286,
        "lon": 6.16651
      },
      {
        "name": "Chellalat el Adhaouara",
        "lat": 35.93968,
        "lon": 3.41588
      },
      {
        "name": "Chemini",
        "lat": 36.6,
        "lon": 4.61667
      },
      {
        "name": "Cheraga",
        "lat": 36.76775,
        "lon": 2.95924
      },
      {
        "name": "Cherchell",
        "lat": 36.605,
        "lon": 2.19083
      },
      {
        "name": "Cheria",
        "lat": 35.27306,
        "lon": 7.75194
      },
      {
        "name": "Chetouane",
        "lat": 34.92129,
        "lon": -1.29512
      },
      {
        "name": "Chiffa",
        "lat": 36.46293,
        "lon": 2.73873
      },
      {
        "name": "Chlef",
        "lat": 36.16525,
        "lon": 1.33452
      },
      {
        "name": "Chorfa",
        "lat": 36.36505,
        "lon": 4.32636
      },
      {
        "name": "Collo",
        "lat": 37.00563,
        "lon": 6.56049
      },
      {
        "name": "Constantine",
        "lat": 36.365,
        "lon": 6.61472
      },
      {
        "name": "Dar Chioukh",
        "lat": 34.89638,
        "lon": 3.48543
      },
      {
        "name": "Dar el Beïda",
        "lat": 36.71333,
        "lon": 3.2125
      },
      {
        "name": "Debila",
        "lat": 33.51667,
        "lon": 6.95
      },
      {
        "name": "Dellys",
        "lat": 36.91716,
        "lon": 3.91311
      },
      {
        "name": "Didouche Mourad",
        "lat": 36.4525,
        "lon": 6.63639
      },
      {
        "name": "District of Taher",
        "lat": 36.772,
        "lon": 5.8982
      },
      {
        "name": "Djamaa",
        "lat": 33.53388,
        "lon": 5.99306
      },
      {
        "name": "Djelfa",
        "lat": 34.67279,
        "lon": 3.263
      },
      {
        "name": "Djidiouia",
        "lat": 35.92989,
        "lon": 0.82871
      },
      {
        "name": "Douéra",
        "lat": 36.67,
        "lon": 2.94444
      },
      {
        "name": "Draa Ben Khedda",
        "lat": 36.73436,
        "lon": 3.96223
      },
      {
        "name": "Draa el Mizan",
        "lat": 36.53628,
        "lon": 3.8334
      },
      {
        "name": "Drean",
        "lat": 36.68482,
        "lon": 7.75111
      },
      {
        "name": "Ech Chettia",
        "lat": 36.19591,
        "lon": 1.25537
      },
      {
        "name": "El Abadia",
        "lat": 36.26951,
        "lon": 1.68609
      },
      {
        "name": "El Abiodh Sidi Cheikh",
        "lat": 32.893,
        "lon": 0.54839
      },
      {
        "name": "El Achir",
        "lat": 36.06386,
        "lon": 4.62744
      },
      {
        "name": "El Affroun",
        "lat": 36.4701,
        "lon": 2.62528
      },
      {
        "name": "El Amria",
        "lat": 35.52439,
        "lon": -1.01577
      },
      {
        "name": "El Aouinet",
        "lat": 35.86691,
        "lon": 7.88673
      },
      {
        "name": "El Arrouch",
        "lat": 36.65306,
        "lon": 6.83639
      },
      {
        "name": "El Attaf",
        "lat": 36.22393,
        "lon": 1.67187
      },
      {
        "name": "El Bayadh",
        "lat": 33.68318,
        "lon": 1.01927
      },
      {
        "name": "El Eulma",
        "lat": 36.15281,
        "lon": 5.69016
      },
      {
        "name": "El Hadjar",
        "lat": 36.80377,
        "lon": 7.73684
      },
      {
        "name": "El Hadjira",
        "lat": 32.61336,
        "lon": 5.51259
      },
      {
        "name": "El Idrissia",
        "lat": 34.44542,
        "lon": 2.52749
      },
      {
        "name": "El Kala",
        "lat": 36.89556,
        "lon": 8.44333
      },
      {
        "name": "El Khroub",
        "lat": 36.26333,
        "lon": 6.69361
      },
      {
        "name": "El Kseur",
        "lat": 36.67942,
        "lon": 4.8555
      },
      {
        "name": "El Malah",
        "lat": 35.39137,
        "lon": -1.09238
      },
      {
        "name": "El Meghaïer",
        "lat": 33.95139,
        "lon": 5.92222
      },
      {
        "name": "El Menia",
        "lat": 30.57556,
        "lon": 2.88417
      },
      {
        "name": "El Milia",
        "lat": 36.75472,
        "lon": 6.2725
      },
      {
        "name": "El Oued",
        "lat": 33.35608,
        "lon": 6.86319
      },
      {
        "name": "En Nedjma",
        "lat": 35.64785,
        "lon": -0.5695
      },
      {
        "name": "Es Senia",
        "lat": 35.64779,
        "lon": -0.62397
      },
      {
        "name": "Fedj M’Zala",
        "lat": 36.40937,
        "lon": 5.94463
      },
      {
        "name": "Feidh el Botma",
        "lat": 34.5,
        "lon": 3.76667
      },
      {
        "name": "Feraoun",
        "lat": 36.56041,
        "lon": 4.85454
      },
      {
        "name": "Freha",
        "lat": 36.75234,
        "lon": 4.3155
      },
      {
        "name": "Frenda",
        "lat": 35.06544,
        "lon": 1.04945
      },
      {
        "name": "Gdyel",
        "lat": 35.78111,
        "lon": -0.42581
      },
      {
        "name": "Ghardaïa",
        "lat": 32.49094,
        "lon": 3.67347
      },
      {
        "name": "Ghazaouet",
        "lat": 35.09579,
        "lon": -1.85772
      },
      {
        "name": "Grarem",
        "lat": 36.51611,
        "lon": 6.32722
      },
      {
        "name": "Guelma",
        "lat": 36.46214,
        "lon": 7.42608
      },
      {
        "name": "Guemar",
        "lat": 33.48529,
        "lon": 6.79693
      },
      {
        "name": "Guerara",
        "lat": 32.79211,
        "lon": 4.49949
      },
      {
        "name": "Hadjout",
        "lat": 36.51257,
        "lon": 2.41382
      },
      {
        "name": "Hamma Bouziane",
        "lat": 36.41205,
        "lon": 6.59603
      },
      {
        "name": "Hammam Bou Hadjar",
        "lat": 35.37889,
        "lon": -0.96778
      },
      {
        "name": "Hammamet",
        "lat": 35.44862,
        "lon": 7.95184
      },
      {
        "name": "Hassi Bahbah",
        "lat": 35.07109,
        "lon": 3.0299
      },
      {
        "name": "Hassi Messaoud",
        "lat": 31.68041,
        "lon": 6.07286
      },
      {
        "name": "Hennaya",
        "lat": 34.95139,
        "lon": -1.36806
      },
      {
        "name": "Héliopolis",
        "lat": 36.50361,
        "lon": 7.44278
      },
      {
        "name": "Ighram",
        "lat": 36.46295,
        "lon": 4.50532
      },
      {
        "name": "In Salah",
        "lat": 27.19678,
        "lon": 2.47913
      },
      {
        "name": "Jijel",
        "lat": 36.821,
        "lon": 5.76352
      },
      {
        "name": "Kaïs",
        "lat": 35.49474,
        "lon": 6.92492
      },
      {
        "name": "Kerkera",
        "lat": 36.92917,
        "lon": 6.58556
      },
      {
        "name": "Khemis Miliana",
        "lat": 36.26104,
        "lon": 2.22015
      },
      {
        "name": "Khemis el Khechna",
        "lat": 36.64997,
        "lon": 3.3308
      },
      {
        "name": "Khenchela",
        "lat": 35.43583,
        "lon": 7.14333
      },
      {
        "name": "Kolea",
        "lat": 36.63888,
        "lon": 2.76845
      },
      {
        "name": "Ksar Chellala",
        "lat": 35.21222,
        "lon": 2.31889
      },
      {
        "name": "Ksar el Boukhari",
        "lat": 35.88889,
        "lon": 2.74905
      },
      {
        "name": "Laghouat",
        "lat": 33.8,
        "lon": 2.86514
      },
      {
        "name": "Lakhdaria",
        "lat": 36.56463,
        "lon": 3.5933
      },
      {
        "name": "Larbaâ",
        "lat": 36.56471,
        "lon": 3.15434
      },
      {
        "name": "Lardjem",
        "lat": 35.74922,
        "lon": 1.54778
      },
      {
        "name": "L’Arbaa Naït Irathen",
        "lat": 36.63112,
        "lon": 4.19864
      },
      {
        "name": "M'Sila",
        "lat": 35.70889,
        "lon": 4.53722
      },
      {
        "name": "Maghnia",
        "lat": 34.84969,
        "lon": -1.72753
      },
      {
        "name": "Makouda",
        "lat": 36.78567,
        "lon": 4.06273
      },
      {
        "name": "Mansourah",
        "lat": 36.08725,
        "lon": 4.45192
      },
      {
        "name": "Mansoûra",
        "lat": 34.86158,
        "lon": -1.33935
      },
      {
        "name": "Mascara",
        "lat": 35.39664,
        "lon": 0.14027
      },
      {
        "name": "Mazouna",
        "lat": 36.12232,
        "lon": 0.89865
      },
      {
        "name": "Maâtkas",
        "lat": 36.60466,
        "lon": 3.98437
      },
      {
        "name": "Mecheria",
        "lat": 33.54453,
        "lon": -0.28117
      },
      {
        "name": "Meftah",
        "lat": 36.6204,
        "lon": 3.22248
      },
      {
        "name": "Megarine",
        "lat": 33.19195,
        "lon": 6.08695
      },
      {
        "name": "Mehdia daira de meghila",
        "lat": 35.43058,
        "lon": 1.75714
      },
      {
        "name": "Mekla",
        "lat": 36.68178,
        "lon": 4.26378
      },
      {
        "name": "Melouza",
        "lat": 35.97999,
        "lon": 4.18665
      },
      {
        "name": "Merouana",
        "lat": 35.63106,
        "lon": 5.91186
      },
      {
        "name": "Mers el Kebir",
        "lat": 35.7279,
        "lon": -0.7081
      },
      {
        "name": "Meskiana",
        "lat": 35.63058,
        "lon": 7.66606
      },
      {
        "name": "Messaad",
        "lat": 34.15429,
        "lon": 3.50309
      },
      {
        "name": "Metlili Chaamba",
        "lat": 32.26667,
        "lon": 3.63333
      },
      {
        "name": "Mila",
        "lat": 36.45028,
        "lon": 6.26444
      },
      {
        "name": "Miliana",
        "lat": 36.30554,
        "lon": 2.2248
      },
      {
        "name": "Mohammadia",
        "lat": 35.58861,
        "lon": 0.06861
      },
      {
        "name": "Mostaganem",
        "lat": 35.93115,
        "lon": 0.08918
      },
      {
        "name": "Mouzaïa",
        "lat": 36.46695,
        "lon": 2.68991
      },
      {
        "name": "Médéa",
        "lat": 36.26417,
        "lon": 2.75393
      },
      {
        "name": "M’Daourouch",
        "lat": 36.07821,
        "lon": 7.8196
      },
      {
        "name": "Naciria",
        "lat": 36.74625,
        "lon": 3.83163
      },
      {
        "name": "Nedroma",
        "lat": 35.01361,
        "lon": -1.74799
      },
      {
        "name": "N’Gaous",
        "lat": 35.555,
        "lon": 5.61056
      },
      {
        "name": "Oran",
        "lat": 35.69906,
        "lon": -0.63588
      },
      {
        "name": "Ouargla",
        "lat": 31.94932,
        "lon": 5.32502
      },
      {
        "name": "Oued Fodda",
        "lat": 36.18503,
        "lon": 1.53299
      },
      {
        "name": "Oued Rhiou",
        "lat": 35.96124,
        "lon": 0.91896
      },
      {
        "name": "Oued Sly",
        "lat": 36.10124,
        "lon": 1.19949
      },
      {
        "name": "Oued Zenati",
        "lat": 36.31611,
        "lon": 7.16364
      },
      {
        "name": "Oued el Abtal",
        "lat": 35.45595,
        "lon": 0.68778
      },
      {
        "name": "Oued el Alleug",
        "lat": 36.55528,
        "lon": 2.79028
      },
      {
        "name": "Ouenza",
        "lat": 35.95333,
        "lon": 8.12917
      },
      {
        "name": "Ouled Djellal",
        "lat": 34.43,
        "lon": 5.06139
      },
      {
        "name": "Ouled Haddaj",
        "lat": 36.71461,
        "lon": 3.3422
      },
      {
        "name": "Ouled Mimoun",
        "lat": 34.90472,
        "lon": -1.03394
      },
      {
        "name": "Ouled Moussa",
        "lat": 36.68394,
        "lon": 3.36661
      },
      {
        "name": "Ouled Slama Fouaga",
        "lat": 36.54828,
        "lon": 3.11006
      },
      {
        "name": "Oum el Bouaghi",
        "lat": 35.87541,
        "lon": 7.11353
      },
      {
        "name": "Reggane",
        "lat": 26.71576,
        "lon": 0.1714
      },
      {
        "name": "Reghaïa",
        "lat": 36.73587,
        "lon": 3.34018
      },
      {
        "name": "Reguiba",
        "lat": 33.56391,
        "lon": 6.70326
      },
      {
        "name": "Relizane",
        "lat": 35.73734,
        "lon": 0.55599
      },
      {
        "name": "Remchi",
        "lat": 35.06196,
        "lon": -1.43362
      },
      {
        "name": "Robbah",
        "lat": 33.27967,
        "lon": 6.90984
      },
      {
        "name": "Rouached",
        "lat": 36.45774,
        "lon": 6.04267
      },
      {
        "name": "Rouiba",
        "lat": 36.73829,
        "lon": 3.28079
      },
      {
        "name": "Rouissat",
        "lat": 31.92427,
        "lon": 5.35018
      },
      {
        "name": "Râs el Aïoun",
        "lat": 35.67384,
        "lon": 5.6453
      },
      {
        "name": "Râs el Oued",
        "lat": 35.9441,
        "lon": 5.03107
      },
      {
        "name": "Salah Bey",
        "lat": 35.85451,
        "lon": 5.29053
      },
      {
        "name": "Saoula",
        "lat": 36.70456,
        "lon": 3.02462
      },
      {
        "name": "Saïda",
        "lat": 34.83033,
        "lon": 0.15171
      },
      {
        "name": "Sebdou",
        "lat": 34.63703,
        "lon": -1.33143
      },
      {
        "name": "Seddouk",
        "lat": 36.54722,
        "lon": 4.68611
      },
      {
        "name": "Sedrata",
        "lat": 36.12868,
        "lon": 7.53376
      },
      {
        "name": "Sfizef",
        "lat": 35.23464,
        "lon": -0.24435
      },
      {
        "name": "Sidi Abdelli",
        "lat": 35.06937,
        "lon": -1.13706
      },
      {
        "name": "Sidi Akkacha",
        "lat": 36.46472,
        "lon": 1.30258
      },
      {
        "name": "Sidi Amar",
        "lat": 36.82019,
        "lon": 7.71641
      },
      {
        "name": "Sidi Amrane",
        "lat": 33.49885,
        "lon": 6.00803
      },
      {
        "name": "Sidi Aïssa",
        "lat": 35.88548,
        "lon": 3.77236
      },
      {
        "name": "Sidi Bel Abbes",
        "lat": 35.18994,
        "lon": -0.63085
      },
      {
        "name": "Sidi Khaled",
        "lat": 34.387,
        "lon": 4.98785
      },
      {
        "name": "Sidi Moussa",
        "lat": 36.60637,
        "lon": 3.08783
      },
      {
        "name": "Sidi Mérouane",
        "lat": 36.52056,
        "lon": 6.26111
      },
      {
        "name": "Sidi Okba",
        "lat": 34.74512,
        "lon": 5.89833
      },
      {
        "name": "Sidi ech Chahmi",
        "lat": 35.65903,
        "lon": -0.52168
      },
      {
        "name": "Sig",
        "lat": 35.52832,
        "lon": -0.19369
      },
      {
        "name": "Skikda",
        "lat": 36.87617,
        "lon": 6.90921
      },
      {
        "name": "Sougueur",
        "lat": 35.18568,
        "lon": 1.49612
      },
      {
        "name": "Souk Ahras",
        "lat": 36.28639,
        "lon": 7.95111
      },
      {
        "name": "Souma",
        "lat": 36.51833,
        "lon": 2.90528
      },
      {
        "name": "Sour el Ghozlane",
        "lat": 36.14766,
        "lon": 3.69123
      },
      {
        "name": "Sétif",
        "lat": 36.19112,
        "lon": 5.41373
      },
      {
        "name": "Tadjenanet",
        "lat": 36.12129,
        "lon": 5.9867
      },
      {
        "name": "Tadmaït",
        "lat": 36.74413,
        "lon": 3.90045
      },
      {
        "name": "Tamalous",
        "lat": 36.83763,
        "lon": 6.64018
      },
      {
        "name": "Tamanghasset",
        "lat": 22.785,
        "lon": 5.52278
      },
      {
        "name": "Tazoult-Lambese",
        "lat": 35.48171,
        "lon": 6.26074
      },
      {
        "name": "Taïbet",
        "lat": 33.08515,
        "lon": 6.3891
      },
      {
        "name": "Tebesbest",
        "lat": 33.11667,
        "lon": 6.08333
      },
      {
        "name": "Telerghma",
        "lat": 36.11653,
        "lon": 6.35434
      },
      {
        "name": "Thenia",
        "lat": 36.72544,
        "lon": 3.55665
      },
      {
        "name": "Theniet el Had",
        "lat": 35.87111,
        "lon": 2.02806
      },
      {
        "name": "Tiaret",
        "lat": 35.37103,
        "lon": 1.31699
      },
      {
        "name": "Tighenif",
        "lat": 35.41722,
        "lon": 0.32982
      },
      {
        "name": "Timimoun",
        "lat": 29.26417,
        "lon": 0.23583
      },
      {
        "name": "Timizart",
        "lat": 36.8,
        "lon": 4.26667
      },
      {
        "name": "Tindouf",
        "lat": 27.67111,
        "lon": -8.14743
      },
      {
        "name": "Tipasa",
        "lat": 36.58972,
        "lon": 2.44889
      },
      {
        "name": "Tirmitine",
        "lat": 36.65393,
        "lon": 3.98143
      },
      {
        "name": "Tissemsilt",
        "lat": 35.60722,
        "lon": 1.81081
      },
      {
        "name": "Tizi Gheniff",
        "lat": 36.58839,
        "lon": 3.77445
      },
      {
        "name": "Tizi Ouzou",
        "lat": 36.71182,
        "lon": 4.04591
      },
      {
        "name": "Tizi Rached",
        "lat": 36.67176,
        "lon": 4.19176
      },
      {
        "name": "Tizi-n-Tleta",
        "lat": 36.54569,
        "lon": 4.05712
      },
      {
        "name": "Tlemcen",
        "lat": 34.87833,
        "lon": -1.315
      },
      {
        "name": "Tolga",
        "lat": 34.72224,
        "lon": 5.37845
      },
      {
        "name": "Touggourt",
        "lat": 33.11083,
        "lon": 6.07
      },
      {
        "name": "Tébessa",
        "lat": 35.40417,
        "lon": 8.12417
      },
      {
        "name": "Ténès",
        "lat": 36.51076,
        "lon": 1.30809
      },
      {
        "name": "Zemoura",
        "lat": 35.72251,
        "lon": 0.75509
      },
      {
        "name": "Zeralda",
        "lat": 36.71169,
        "lon": 2.84244
      },
      {
        "name": "Zeribet el Oued",
        "lat": 34.68284,
        "lon": 6.51109
      },
      {
        "name": "Zighout Youcef",
        "lat": 36.53307,
        "lon": 6.71237
      },
      {
        "name": "el hed",
        "lat": 36.65,
        "lon": 4.77361
      },
      {
        "name": "’Aïn Abid",
        "lat": 36.23194,
        "lon": 6.94333
      },
      {
        "name": "’Aïn Azel",
        "lat": 35.81846,
        "lon": 5.51115
      },
      {
        "name": "’Aïn Benian",
        "lat": 36.80277,
        "lon": 2.92185
      },
      {
        "name": "’Aïn Deheb",
        "lat": 34.84218,
        "lon": 1.54697
      },
      {
        "name": "’Aïn Merane",
        "lat": 36.16277,
        "lon": 0.97037
      },
      {
        "name": "’Aïn el Bell",
        "lat": 34.34381,
        "lon": 3.22475
      },
      {
        "name": "’Aïn el Berd",
        "lat": 35.36395,
        "lon": -0.51279
      },
      {
        "name": "’Aïn el Hammam",
        "lat": 36.56471,
        "lon": 4.30619
      },
      {
        "name": "’Aïn el Melh",
        "lat": 34.84146,
        "lon": 4.16383
      },
      {
        "name": "’Aïn el Turk",
        "lat": 35.74381,
        "lon": -0.7693
      }
    ]
  },
  {
    "code": "AS",
    "name": "American Samoa",
    "capital": "Pago Pago",
    "currency": "USD",
    "population": 49710,
    "cities": [
      {
        "name": "Pago Pago",
        "lat": -14.27806,
        "lon": -170.7025
      }
    ]
  },
  {
    "code": "AD",
    "name": "Andorra",
    "capital": "Andorra la Vella",
    "currency": "EUR",
    "population": 88406,
    "cities": [
      {
        "name": "Andorra la Vella",
        "lat": 42.50779,
        "lon": 1.52109
      },
      {
        "name": "les Escaldes",
        "lat": 42.50729,
        "lon": 1.53414
      }
    ]
  },
  {
    "code": "AO",
    "name": "Angola",
    "capital": "Luanda",
    "currency": "AOA",
    "population": 36170961,
    "cities": [
      {
        "name": "Alto Hama",
        "lat": -12.23333,
        "lon": 15.55
      },
      {
        "name": "Andulo",
        "lat": -11.48676,
        "lon": 16.69663
      },
      {
        "name": "Bailundo",
        "lat": -9.57499,
        "lon": 15.99442
      },
      {
        "name": "Balombo",
        "lat": -12.35426,
        "lon": 14.77232
      },
      {
        "name": "Barra do Dande",
        "lat": -8.47175,
        "lon": 13.37011
      },
      {
        "name": "Baía Farta",
        "lat": -12.60417,
        "lon": 13.19667
      },
      {
        "name": "Belize",
        "lat": -4.65,
        "lon": 12.76667
      },
      {
        "name": "Benguela",
        "lat": -12.57674,
        "lon": 13.40268
      },
      {
        "name": "Bocoio",
        "lat": -12.47017,
        "lon": 14.13688
      },
      {
        "name": "Buco Zau",
        "lat": -4.76667,
        "lon": 12.55
      },
      {
        "name": "Cabinda",
        "lat": -5.56198,
        "lon": 12.19476
      },
      {
        "name": "Cacuso",
        "lat": -9.42102,
        "lon": 15.74668
      },
      {
        "name": "Cafunfo",
        "lat": -8.7672,
        "lon": 17.99572
      },
      {
        "name": "Calulo",
        "lat": -10.00055,
        "lon": 14.89519
      },
      {
        "name": "Caluquembe",
        "lat": -13.86667,
        "lon": 14.43333
      },
      {
        "name": "Camabatela",
        "lat": -8.18812,
        "lon": 15.37495
      },
      {
        "name": "Camacupa",
        "lat": -12.01667,
        "lon": 17.48333
      },
      {
        "name": "Cambundi",
        "lat": -7.46856,
        "lon": 17.03769
      },
      {
        "name": "Cambundi Catembo",
        "lat": -10.07531,
        "lon": 17.55058
      },
      {
        "name": "Camucuio",
        "lat": -14.11667,
        "lon": 13.25
      },
      {
        "name": "Cangandala",
        "lat": -9.78333,
        "lon": 16.43333
      },
      {
        "name": "Capunda",
        "lat": -11.13333,
        "lon": 14.46667
      },
      {
        "name": "Cassanguidi",
        "lat": -7.48367,
        "lon": 21.30339
      },
      {
        "name": "Catabola",
        "lat": -12.15,
        "lon": 17.28333
      },
      {
        "name": "Catchiungo",
        "lat": -12.56598,
        "lon": 16.22589
      },
      {
        "name": "Catumbela",
        "lat": -12.43002,
        "lon": 13.54677
      },
      {
        "name": "Caxito",
        "lat": -8.57848,
        "lon": 13.66425
      },
      {
        "name": "Cazenga",
        "lat": -8.82488,
        "lon": 13.31318
      },
      {
        "name": "Cazombo",
        "lat": -11.89914,
        "lon": 22.90216
      },
      {
        "name": "Caála",
        "lat": -12.8525,
        "lon": 15.56056
      },
      {
        "name": "Cela",
        "lat": -11.42173,
        "lon": 15.12345
      },
      {
        "name": "Chinguar",
        "lat": -12.55708,
        "lon": 16.33805
      },
      {
        "name": "Chitato",
        "lat": -7.3,
        "lon": 20.73333
      },
      {
        "name": "Chitembo",
        "lat": -13.55,
        "lon": 16.63333
      },
      {
        "name": "Conda",
        "lat": -11.10862,
        "lon": 14.33621
      },
      {
        "name": "Cuango-Luzamba",
        "lat": -9.14583,
        "lon": 18.04453
      },
      {
        "name": "Cubal",
        "lat": -13.03865,
        "lon": 14.2455
      },
      {
        "name": "Cuemba",
        "lat": -12.15,
        "lon": 18.08333
      },
      {
        "name": "Cuilo",
        "lat": -8.23619,
        "lon": 19.52566
      },
      {
        "name": "Cunda diá Baze",
        "lat": -8.90769,
        "lon": 17.05339
      },
      {
        "name": "Cuímba",
        "lat": -6.12085,
        "lon": 14.62086
      },
      {
        "name": "Cuíto",
        "lat": -12.38333,
        "lon": 16.93333
      },
      {
        "name": "Dombe Grande",
        "lat": -12.95167,
        "lon": 13.1025
      },
      {
        "name": "Dondo",
        "lat": -9.68456,
        "lon": 14.42788
      },
      {
        "name": "Dundo",
        "lat": -7.36643,
        "lon": 20.81557
      },
      {
        "name": "Gabela",
        "lat": -10.85147,
        "lon": 14.37993
      },
      {
        "name": "Gama",
        "lat": -8.5675,
        "lon": 13.47639
      },
      {
        "name": "Ganda",
        "lat": -13.01592,
        "lon": 14.63502
      },
      {
        "name": "Golungo Alto",
        "lat": -9.13333,
        "lon": 14.76667
      },
      {
        "name": "Huambo",
        "lat": -12.77611,
        "lon": 15.73917
      },
      {
        "name": "Humbe",
        "lat": -16.6864,
        "lon": 14.90317
      },
      {
        "name": "Ingombota",
        "lat": -8.81806,
        "lon": 13.22889
      },
      {
        "name": "Lobito",
        "lat": -12.3644,
        "lon": 13.53601
      },
      {
        "name": "Londuimbali",
        "lat": -12.23712,
        "lon": 15.31697
      },
      {
        "name": "Longonjo",
        "lat": -12.90795,
        "lon": 15.24845
      },
      {
        "name": "Luanda",
        "lat": -8.83682,
        "lon": 13.23432
      },
      {
        "name": "Luau",
        "lat": -10.70727,
        "lon": 22.22466
      },
      {
        "name": "Lubalo",
        "lat": -9.15445,
        "lon": 19.28136
      },
      {
        "name": "Lubango",
        "lat": -14.91717,
        "lon": 13.4925
      },
      {
        "name": "Lucala",
        "lat": -9.27268,
        "lon": 15.25206
      },
      {
        "name": "Lucapa",
        "lat": -8.41915,
        "lon": 20.74466
      },
      {
        "name": "Luena",
        "lat": -11.78333,
        "lon": 19.91667
      },
      {
        "name": "Lumbala",
        "lat": -14.10165,
        "lon": 21.43531
      },
      {
        "name": "Luquembo",
        "lat": -10.73912,
        "lon": 17.71766
      },
      {
        "name": "Maianga",
        "lat": -8.82904,
        "lon": 13.23097
      },
      {
        "name": "Malanje",
        "lat": -9.54015,
        "lon": 16.34096
      },
      {
        "name": "Maquela do Zombo",
        "lat": -6.05716,
        "lon": 15.10971
      },
      {
        "name": "Matala",
        "lat": -14.73272,
        "lon": 15.03479
      },
      {
        "name": "Mbanza Kongo",
        "lat": -6.26667,
        "lon": 14.23833
      },
      {
        "name": "Menongue",
        "lat": -14.6585,
        "lon": 17.69099
      },
      {
        "name": "Mossamedes",
        "lat": -15.19611,
        "lon": 12.15222
      },
      {
        "name": "Mungo",
        "lat": -11.83268,
        "lon": 16.23613
      },
      {
        "name": "Mussende",
        "lat": -10.5143,
        "lon": 16.0199
      },
      {
        "name": "N'dalatando",
        "lat": -9.29782,
        "lon": 14.91162
      },
      {
        "name": "N'zeto",
        "lat": -7.228,
        "lon": 12.86956
      },
      {
        "name": "Negage",
        "lat": -7.75938,
        "lon": 15.2722
      },
      {
        "name": "Nharêa",
        "lat": -11.47512,
        "lon": 16.96496
      },
      {
        "name": "Nzagi",
        "lat": -8.38549,
        "lon": 15.30126
      },
      {
        "name": "Ondjiva",
        "lat": -17.06667,
        "lon": 15.73333
      },
      {
        "name": "Porto Amboim",
        "lat": -10.73251,
        "lon": 13.76844
      },
      {
        "name": "Quibala",
        "lat": -10.73366,
        "lon": 14.97995
      },
      {
        "name": "Quipungo",
        "lat": -14.81909,
        "lon": 14.53504
      },
      {
        "name": "Quissecula",
        "lat": -11.39223,
        "lon": 15.09201
      },
      {
        "name": "Rangel",
        "lat": -8.82644,
        "lon": 13.26285
      },
      {
        "name": "Samba",
        "lat": -8.88001,
        "lon": 13.19617
      },
      {
        "name": "Sambizanga",
        "lat": -8.78883,
        "lon": 13.27506
      },
      {
        "name": "Santa Clara",
        "lat": -10.19156,
        "lon": 15.43408
      },
      {
        "name": "Sanza Pombo",
        "lat": -7.31473,
        "lon": 16.0024
      },
      {
        "name": "Saurimo",
        "lat": -9.66078,
        "lon": 20.39155
      },
      {
        "name": "Songo",
        "lat": -7.35207,
        "lon": 14.84629
      },
      {
        "name": "Soyo",
        "lat": -6.1349,
        "lon": 12.36894
      },
      {
        "name": "Sumbe",
        "lat": -11.20605,
        "lon": 13.84371
      },
      {
        "name": "Talatona",
        "lat": -8.91783,
        "lon": 13.18562
      },
      {
        "name": "Tombôco",
        "lat": -6.80517,
        "lon": 13.33017
      },
      {
        "name": "Tômbua",
        "lat": -15.80394,
        "lon": 11.84485
      },
      {
        "name": "Ucu Seles",
        "lat": -11.41237,
        "lon": 14.30663
      },
      {
        "name": "Ucuma",
        "lat": -12.96121,
        "lon": 15.05958
      },
      {
        "name": "Uíge",
        "lat": -7.60874,
        "lon": 15.06131
      },
      {
        "name": "Virei",
        "lat": -15.727,
        "lon": 12.94961
      },
      {
        "name": "Xangongo",
        "lat": -16.7444,
        "lon": 14.97494
      }
    ]
  },
  {
    "code": "AI",
    "name": "Anguilla",
    "capital": "The Valley",
    "currency": "XCD",
    "population": 16010,
    "cities": [
      {
        "name": "The Valley",
        "lat": 18.21704,
        "lon": -63.05783
      }
    ]
  },
  {
    "code": "AG",
    "name": "Antigua and Barbuda",
    "capital": "Saint John's",
    "currency": "XCD",
    "population": 103603,
    "cities": [
      {
        "name": "Saint John’s",
        "lat": 17.12096,
        "lon": -61.84329
      }
    ]
  },
  {
    "code": "AR",
    "name": "Argentina",
    "capital": "Buenos Aires",
    "currency": "ARS",
    "population": 46735004,
    "cities": [
      {
        "name": "Adrogué",
        "lat": -34.80041,
        "lon": -58.38384
      },
      {
        "name": "Aguilares",
        "lat": -27.4315,
        "lon": -65.61465
      },
      {
        "name": "Aimogasta",
        "lat": -28.56003,
        "lon": -66.80737
      },
      {
        "name": "Albardón",
        "lat": -31.43722,
        "lon": -68.52556
      },
      {
        "name": "Alderetes",
        "lat": -26.81787,
        "lon": -65.14202
      },
      {
        "name": "Allen",
        "lat": -38.97736,
        "lon": -67.82714
      },
      {
        "name": "Alta Gracia",
        "lat": -31.64978,
        "lon": -64.42972
      },
      {
        "name": "Apóstoles",
        "lat": -27.91421,
        "lon": -55.75355
      },
      {
        "name": "Aristóbulo del Valle",
        "lat": -27.09571,
        "lon": -54.89344
      },
      {
        "name": "Arrecifes",
        "lat": -34.06306,
        "lon": -60.10261
      },
      {
        "name": "Arroyito",
        "lat": -31.41917,
        "lon": -63.05084
      },
      {
        "name": "Arroyo Seco",
        "lat": -33.15365,
        "lon": -60.51168
      },
      {
        "name": "Avellaneda",
        "lat": -29.11761,
        "lon": -59.65834
      },
      {
        "name": "Ayacucho",
        "lat": -37.15276,
        "lon": -58.48838
      },
      {
        "name": "Azul",
        "lat": -36.77803,
        "lon": -59.85848
      },
      {
        "name": "Añatuya",
        "lat": -28.4602,
        "lon": -62.83354
      },
      {
        "name": "Bahía Blanca",
        "lat": -38.7176,
        "lon": -62.26545
      },
      {
        "name": "Balcarce",
        "lat": -37.84638,
        "lon": -58.25549
      },
      {
        "name": "Balvanera",
        "lat": -34.61032,
        "lon": -58.39766
      },
      {
        "name": "Barracas",
        "lat": -34.64966,
        "lon": -58.38341
      },
      {
        "name": "Barranqueras",
        "lat": -27.48132,
        "lon": -58.93925
      },
      {
        "name": "Belgrano",
        "lat": -34.5627,
        "lon": -58.45829
      },
      {
        "name": "Bell Ville",
        "lat": -32.63021,
        "lon": -62.68883
      },
      {
        "name": "Bella Vista",
        "lat": -34.5651,
        "lon": -58.69034
      },
      {
        "name": "Berazategui",
        "lat": -34.76531,
        "lon": -58.21278
      },
      {
        "name": "Boedo",
        "lat": -34.63333,
        "lon": -58.41667
      },
      {
        "name": "Buenos Aires",
        "lat": -34.61315,
        "lon": -58.37723
      },
      {
        "name": "Caleta Olivia",
        "lat": -46.44785,
        "lon": -67.52274
      },
      {
        "name": "Campana",
        "lat": -34.16327,
        "lon": -58.95919
      },
      {
        "name": "Capitán Bermúdez",
        "lat": -32.82262,
        "lon": -60.71852
      },
      {
        "name": "Carcarañá",
        "lat": -32.85704,
        "lon": -61.15114
      },
      {
        "name": "Carmen de Patagones",
        "lat": -40.80255,
        "lon": -62.98349
      },
      {
        "name": "Casilda",
        "lat": -33.04459,
        "lon": -61.16423
      },
      {
        "name": "Castelar",
        "lat": -34.65142,
        "lon": -58.64074
      },
      {
        "name": "Catamarca",
        "lat": -28.46957,
        "lon": -65.78524
      },
      {
        "name": "Catriel",
        "lat": -37.87552,
        "lon": -67.79451
      },
      {
        "name": "Caucete",
        "lat": -31.6515,
        "lon": -68.28216
      },
      {
        "name": "Cañada de Gómez",
        "lat": -32.82033,
        "lon": -61.39513
      },
      {
        "name": "Centenario",
        "lat": -38.82955,
        "lon": -68.1318
      },
      {
        "name": "Chacabuco",
        "lat": -34.64203,
        "lon": -60.47124
      },
      {
        "name": "Chajarí",
        "lat": -30.75482,
        "lon": -57.98196
      },
      {
        "name": "Charata",
        "lat": -27.21787,
        "lon": -61.18738
      },
      {
        "name": "Chascomús",
        "lat": -35.57681,
        "lon": -58.01215
      },
      {
        "name": "Chilecito",
        "lat": -29.16163,
        "lon": -67.49934
      },
      {
        "name": "Chimbas",
        "lat": -31.49313,
        "lon": -68.53263
      },
      {
        "name": "Chivilcoy",
        "lat": -34.8969,
        "lon": -60.01909
      },
      {
        "name": "Cinco Saltos",
        "lat": -38.82225,
        "lon": -68.06293
      },
      {
        "name": "Cipolletti",
        "lat": -38.93392,
        "lon": -67.99032
      },
      {
        "name": "Colegiales",
        "lat": -34.57365,
        "lon": -58.44924
      },
      {
        "name": "Colonia Wanda",
        "lat": -25.97337,
        "lon": -54.56304
      },
      {
        "name": "Colón",
        "lat": -32.22312,
        "lon": -58.14426
      },
      {
        "name": "Comodoro Rivadavia",
        "lat": -45.86256,
        "lon": -67.494
      },
      {
        "name": "Concepción del Uruguay",
        "lat": -32.48463,
        "lon": -58.23217
      },
      {
        "name": "Concordia",
        "lat": -31.39195,
        "lon": -58.01706
      },
      {
        "name": "Coronda",
        "lat": -31.97365,
        "lon": -60.91935
      },
      {
        "name": "Coronel Suárez",
        "lat": -37.45859,
        "lon": -61.93294
      },
      {
        "name": "Corrientes",
        "lat": -27.46784,
        "lon": -58.8344
      },
      {
        "name": "Cosquín",
        "lat": -31.24525,
        "lon": -64.46574
      },
      {
        "name": "Crespo",
        "lat": -32.03077,
        "lon": -60.30619
      },
      {
        "name": "Cruz del Eje",
        "lat": -30.72644,
        "lon": -64.80387
      },
      {
        "name": "Curuzú Cuatiá",
        "lat": -29.79145,
        "lon": -58.0499
      },
      {
        "name": "Cutral-Có",
        "lat": -38.93424,
        "lon": -69.23052
      },
      {
        "name": "Córdoba",
        "lat": -31.40648,
        "lon": -64.18853
      },
      {
        "name": "Deán Funes",
        "lat": -30.42498,
        "lon": -64.35274
      },
      {
        "name": "Diamante",
        "lat": -32.0671,
        "lon": -60.64267
      },
      {
        "name": "Dolores",
        "lat": -36.31539,
        "lon": -57.67546
      },
      {
        "name": "Don Torcuato",
        "lat": -34.49459,
        "lon": -58.62729
      },
      {
        "name": "El Bolsón",
        "lat": -41.96051,
        "lon": -71.53336
      },
      {
        "name": "El Palomar",
        "lat": -34.61771,
        "lon": -58.60153
      },
      {
        "name": "El Soberbio",
        "lat": -27.29662,
        "lon": -54.19811
      },
      {
        "name": "Embalse",
        "lat": -32.20681,
        "lon": -64.40064
      },
      {
        "name": "Embarcación",
        "lat": -23.21003,
        "lon": -64.09965
      },
      {
        "name": "Esperanza",
        "lat": -31.44957,
        "lon": -60.93153
      },
      {
        "name": "Esquel",
        "lat": -42.91147,
        "lon": -71.31947
      },
      {
        "name": "Esquina",
        "lat": -30.01476,
        "lon": -59.5289
      },
      {
        "name": "Famaillá",
        "lat": -27.05452,
        "lon": -65.40189
      },
      {
        "name": "Federal",
        "lat": -30.95619,
        "lon": -58.7797
      },
      {
        "name": "Firmat",
        "lat": -33.45937,
        "lon": -61.4832
      },
      {
        "name": "Fontana",
        "lat": -27.42039,
        "lon": -59.03731
      },
      {
        "name": "Formosa",
        "lat": -26.18489,
        "lon": -58.17313
      },
      {
        "name": "Garupá",
        "lat": -27.48315,
        "lon": -55.82924
      },
      {
        "name": "General José de San Martín",
        "lat": -26.53643,
        "lon": -59.34138
      },
      {
        "name": "General Mosconi",
        "lat": -22.59617,
        "lon": -63.811
      },
      {
        "name": "General Pacheco",
        "lat": -34.45256,
        "lon": -58.64312
      },
      {
        "name": "General Pico",
        "lat": -35.6593,
        "lon": -63.75787
      },
      {
        "name": "General Pinedo",
        "lat": -27.32534,
        "lon": -61.28101
      },
      {
        "name": "General Roca",
        "lat": -39.03333,
        "lon": -67.58333
      },
      {
        "name": "General Villegas",
        "lat": -35.03264,
        "lon": -63.01484
      },
      {
        "name": "Gobernador Gálvez",
        "lat": -33.03016,
        "lon": -60.64045
      },
      {
        "name": "Gobernador Virasora",
        "lat": -28.05,
        "lon": -56.03333
      },
      {
        "name": "Goya",
        "lat": -29.13995,
        "lon": -59.26343
      },
      {
        "name": "Granadero Baigorria",
        "lat": -32.85683,
        "lon": -60.71754
      },
      {
        "name": "Gualeguay",
        "lat": -33.14091,
        "lon": -59.31257
      },
      {
        "name": "Gualeguaychú",
        "lat": -33.00777,
        "lon": -58.51836
      },
      {
        "name": "Gálvez",
        "lat": -32.02957,
        "lon": -61.22097
      },
      {
        "name": "Haedo",
        "lat": -34.64239,
        "lon": -58.59212
      },
      {
        "name": "Hurlingham",
        "lat": -34.5904,
        "lon": -58.62904
      },
      {
        "name": "Ingeniero Pablo Nogués",
        "lat": -34.47775,
        "lon": -58.70652
      },
      {
        "name": "Ituzaingó",
        "lat": -27.58504,
        "lon": -56.68707
      },
      {
        "name": "Jardín América",
        "lat": -27.04346,
        "lon": -55.22698
      },
      {
        "name": "Jesús María",
        "lat": -30.98153,
        "lon": -64.09424
      },
      {
        "name": "Joaquín V. González",
        "lat": -25.11364,
        "lon": -64.12628
      },
      {
        "name": "José C. Paz",
        "lat": -34.51541,
        "lon": -58.76813
      },
      {
        "name": "Juan José Castelli",
        "lat": -25.9466,
        "lon": -60.62008
      },
      {
        "name": "Junín",
        "lat": -34.59391,
        "lon": -60.94644
      },
      {
        "name": "La Calera",
        "lat": -31.34582,
        "lon": -64.33849
      },
      {
        "name": "La Falda",
        "lat": -31.09321,
        "lon": -64.48448
      },
      {
        "name": "La Paz",
        "lat": -30.74179,
        "lon": -59.64517
      },
      {
        "name": "La Plata",
        "lat": -34.92126,
        "lon": -57.95442
      },
      {
        "name": "La Rioja",
        "lat": -29.41328,
        "lon": -66.85637
      },
      {
        "name": "Laboulaye",
        "lat": -34.12688,
        "lon": -63.39083
      },
      {
        "name": "Las Breñas",
        "lat": -27.08819,
        "lon": -61.08217
      },
      {
        "name": "Libertador General San Martín",
        "lat": -23.81305,
        "lon": -64.79353
      },
      {
        "name": "Lincoln",
        "lat": -34.86819,
        "lon": -61.52929
      },
      {
        "name": "Lomas de Zamora",
        "lat": -34.7574,
        "lon": -58.40279
      },
      {
        "name": "Los Polvorines",
        "lat": -34.50316,
        "lon": -58.70596
      },
      {
        "name": "Luján",
        "lat": -34.5664,
        "lon": -59.11478
      },
      {
        "name": "Machagai",
        "lat": -26.92617,
        "lon": -60.04852
      },
      {
        "name": "Mar del Plata",
        "lat": -38.00042,
        "lon": -57.5562
      },
      {
        "name": "Marcos Juárez",
        "lat": -32.6978,
        "lon": -62.10672
      },
      {
        "name": "Mendoza",
        "lat": -32.88946,
        "lon": -68.84582
      },
      {
        "name": "Mercedes",
        "lat": -34.65072,
        "lon": -59.43143
      },
      {
        "name": "Merlo",
        "lat": -34.66536,
        "lon": -58.72744
      },
      {
        "name": "Monte Caseros",
        "lat": -30.2518,
        "lon": -57.63537
      },
      {
        "name": "Montecarlo",
        "lat": -26.56849,
        "lon": -54.7579
      },
      {
        "name": "Monteros",
        "lat": -27.16825,
        "lon": -65.49892
      },
      {
        "name": "Morteros",
        "lat": -30.71066,
        "lon": -62.00714
      },
      {
        "name": "Morón",
        "lat": -34.65118,
        "lon": -58.62205
      },
      {
        "name": "Muñiz",
        "lat": -34.55622,
        "lon": -58.70739
      },
      {
        "name": "Necochea",
        "lat": -38.5545,
        "lon": -58.73961
      },
      {
        "name": "Neuquén",
        "lat": -38.95078,
        "lon": -68.0592
      },
      {
        "name": "Nogoyá",
        "lat": -32.39375,
        "lon": -59.78955
      },
      {
        "name": "Nueve de Julio",
        "lat": -35.44394,
        "lon": -60.88463
      },
      {
        "name": "Oberá",
        "lat": -27.48683,
        "lon": -55.11994
      },
      {
        "name": "Olavarría",
        "lat": -36.89384,
        "lon": -60.32319
      },
      {
        "name": "Palpalá",
        "lat": -24.25798,
        "lon": -65.21358
      },
      {
        "name": "Paraná",
        "lat": -31.73271,
        "lon": -60.52897
      },
      {
        "name": "Paso de los Libres",
        "lat": -29.71251,
        "lon": -57.08771
      },
      {
        "name": "Pehuajó",
        "lat": -35.81081,
        "lon": -61.89897
      },
      {
        "name": "Pergamino",
        "lat": -33.89101,
        "lon": -60.57462
      },
      {
        "name": "Pilar",
        "lat": -34.45867,
        "lon": -58.91398
      },
      {
        "name": "Pirané",
        "lat": -25.73271,
        "lon": -59.10989
      },
      {
        "name": "Plottier",
        "lat": -38.96667,
        "lon": -68.23333
      },
      {
        "name": "Pocito",
        "lat": -31.68333,
        "lon": -68.58333
      },
      {
        "name": "Pontevedra",
        "lat": -34.74947,
        "lon": -58.70158
      },
      {
        "name": "Posadas",
        "lat": -27.39184,
        "lon": -55.92379
      },
      {
        "name": "Presidencia Roque Sáenz Peña",
        "lat": -26.79095,
        "lon": -60.44132
      },
      {
        "name": "Profesor Salvador Mazza",
        "lat": -22.04897,
        "lon": -63.69075
      },
      {
        "name": "Puerto Eldorado",
        "lat": -26.40843,
        "lon": -54.69463
      },
      {
        "name": "Puerto Esperanza",
        "lat": -26.02267,
        "lon": -54.61356
      },
      {
        "name": "Puerto Iguazú",
        "lat": -25.59912,
        "lon": -54.57355
      },
      {
        "name": "Puerto Madryn",
        "lat": -42.76848,
        "lon": -65.03827
      },
      {
        "name": "Puerto Rico",
        "lat": -26.8089,
        "lon": -55.02147
      },
      {
        "name": "Punta Alta",
        "lat": -38.8805,
        "lon": -62.07503
      },
      {
        "name": "Pérez",
        "lat": -32.99835,
        "lon": -60.76791
      },
      {
        "name": "Quilmes",
        "lat": -34.72065,
        "lon": -58.25454
      },
      {
        "name": "Quitilipi",
        "lat": -26.8708,
        "lon": -60.21537
      },
      {
        "name": "Rafaela",
        "lat": -31.25285,
        "lon": -61.49078
      },
      {
        "name": "Rawson",
        "lat": -43.30031,
        "lon": -65.10564
      },
      {
        "name": "Reconquista",
        "lat": -29.15,
        "lon": -59.65
      },
      {
        "name": "Resistencia",
        "lat": -27.46363,
        "lon": -58.98665
      },
      {
        "name": "Retiro",
        "lat": -34.58333,
        "lon": -58.38333
      },
      {
        "name": "Rosario",
        "lat": -32.94682,
        "lon": -60.63932
      },
      {
        "name": "Rufino",
        "lat": -34.26237,
        "lon": -62.71128
      },
      {
        "name": "Río Ceballos",
        "lat": -31.1697,
        "lon": -64.3175
      },
      {
        "name": "Río Colorado",
        "lat": -38.99081,
        "lon": -64.09574
      },
      {
        "name": "Río Cuarto",
        "lat": -33.13044,
        "lon": -64.35272
      },
      {
        "name": "Río Gallegos",
        "lat": -51.6253,
        "lon": -69.25229
      },
      {
        "name": "Río Grande",
        "lat": -53.78773,
        "lon": -67.70975
      },
      {
        "name": "Río Segundo",
        "lat": -31.6501,
        "lon": -63.91165
      },
      {
        "name": "Río Tercero",
        "lat": -32.17675,
        "lon": -64.11295
      },
      {
        "name": "Saladas",
        "lat": -28.25504,
        "lon": -58.62386
      },
      {
        "name": "Saladillo",
        "lat": -35.63884,
        "lon": -59.77938
      },
      {
        "name": "Salta",
        "lat": -24.80645,
        "lon": -65.41999
      },
      {
        "name": "Salto",
        "lat": -34.29175,
        "lon": -60.2545
      },
      {
        "name": "San Antonio Oeste",
        "lat": -40.73193,
        "lon": -64.94769
      },
      {
        "name": "San Antonio de Padua",
        "lat": -34.66267,
        "lon": -58.69819
      },
      {
        "name": "San Carlos de Bariloche",
        "lat": -41.14557,
        "lon": -71.30822
      },
      {
        "name": "San Francisco",
        "lat": -31.42497,
        "lon": -62.08404
      },
      {
        "name": "San Isidro",
        "lat": -34.46971,
        "lon": -58.52111
      },
      {
        "name": "San Javier",
        "lat": -30.58072,
        "lon": -59.92962
      },
      {
        "name": "San Jorge",
        "lat": -31.89706,
        "lon": -61.85993
      },
      {
        "name": "San José de Jáchal",
        "lat": -30.24162,
        "lon": -68.74662
      },
      {
        "name": "San Juan",
        "lat": -31.53726,
        "lon": -68.52568
      },
      {
        "name": "San Justo",
        "lat": -30.78991,
        "lon": -60.59276
      },
      {
        "name": "San Lorenzo",
        "lat": -28.13442,
        "lon": -58.76685
      },
      {
        "name": "San Luis",
        "lat": -33.2914,
        "lon": -66.32467
      },
      {
        "name": "San Luis del Palmar",
        "lat": -27.50766,
        "lon": -58.55625
      },
      {
        "name": "San Martín",
        "lat": -33.08338,
        "lon": -68.47312
      },
      {
        "name": "San Martín de los Andes",
        "lat": -40.15789,
        "lon": -71.35337
      },
      {
        "name": "San Miguel",
        "lat": -34.54335,
        "lon": -58.71229
      },
      {
        "name": "San Miguel de Tucumán",
        "lat": -26.81601,
        "lon": -65.21051
      },
      {
        "name": "San Nicolás de los Arroyos",
        "lat": -33.33425,
        "lon": -60.2108
      },
      {
        "name": "San Pedro",
        "lat": -33.67918,
        "lon": -59.66633
      },
      {
        "name": "San Pedro de Jujuy",
        "lat": -24.23127,
        "lon": -64.86614
      },
      {
        "name": "San Rafael",
        "lat": -34.61531,
        "lon": -68.33238
      },
      {
        "name": "San Ramón de la Nueva Orán",
        "lat": -23.13705,
        "lon": -64.32426
      },
      {
        "name": "San Salvador de Jujuy",
        "lat": -24.1928,
        "lon": -65.29342
      },
      {
        "name": "San Vicente",
        "lat": -26.61667,
        "lon": -54.13333
      },
      {
        "name": "Santa Elena",
        "lat": -30.94432,
        "lon": -59.78832
      },
      {
        "name": "Santa Fe",
        "lat": -31.64881,
        "lon": -60.70868
      },
      {
        "name": "Santa Lucía",
        "lat": -31.54055,
        "lon": -68.49794
      },
      {
        "name": "Santa Rosa",
        "lat": -36.61617,
        "lon": -64.28991
      },
      {
        "name": "Santiago del Estero",
        "lat": -27.80047,
        "lon": -64.26285
      },
      {
        "name": "Santo Tomé",
        "lat": -28.55104,
        "lon": -56.04125
      },
      {
        "name": "Santos Lugares",
        "lat": -34.60306,
        "lon": -58.54074
      },
      {
        "name": "Sunchales",
        "lat": -30.94478,
        "lon": -61.5597
      },
      {
        "name": "Tafí Viejo",
        "lat": -26.7333,
        "lon": -65.26146
      },
      {
        "name": "Tandil",
        "lat": -37.3287,
        "lon": -59.1369
      },
      {
        "name": "Tartagal",
        "lat": -22.51682,
        "lon": -63.8056
      },
      {
        "name": "Termas de Río Hondo",
        "lat": -27.49362,
        "lon": -64.85972
      },
      {
        "name": "Tigre",
        "lat": -34.42603,
        "lon": -58.57962
      },
      {
        "name": "Tortuguitas",
        "lat": -34.47513,
        "lon": -58.75367
      },
      {
        "name": "Trelew",
        "lat": -43.24895,
        "lon": -65.30505
      },
      {
        "name": "Tres Arroyos",
        "lat": -38.37694,
        "lon": -60.27563
      },
      {
        "name": "Tres Isletas",
        "lat": -26.34067,
        "lon": -60.43207
      },
      {
        "name": "Unquillo",
        "lat": -31.23717,
        "lon": -64.31176
      },
      {
        "name": "Ushuaia",
        "lat": -54.81084,
        "lon": -68.31591
      },
      {
        "name": "Veinticinco de Mayo",
        "lat": -35.43247,
        "lon": -60.17156
      },
      {
        "name": "Venado Tuerto",
        "lat": -33.74585,
        "lon": -61.96711
      },
      {
        "name": "Vera",
        "lat": -29.45986,
        "lon": -60.21315
      },
      {
        "name": "Victoria",
        "lat": -32.61841,
        "lon": -60.15478
      },
      {
        "name": "Viedma",
        "lat": -40.81519,
        "lon": -63.0004
      },
      {
        "name": "Villa Allende",
        "lat": -31.29368,
        "lon": -64.2977
      },
      {
        "name": "Villa Carlos Paz",
        "lat": -31.4183,
        "lon": -64.49008
      },
      {
        "name": "Villa Constitución",
        "lat": -33.22795,
        "lon": -60.32994
      },
      {
        "name": "Villa Dolores",
        "lat": -31.94504,
        "lon": -65.19025
      },
      {
        "name": "Villa Gesell",
        "lat": -37.26394,
        "lon": -56.97304
      },
      {
        "name": "Villa Lugano",
        "lat": -34.67907,
        "lon": -58.47263
      },
      {
        "name": "Villa María",
        "lat": -32.40751,
        "lon": -63.24016
      },
      {
        "name": "Villa Mercedes",
        "lat": -33.67571,
        "lon": -65.45783
      },
      {
        "name": "Villa Nueva",
        "lat": -32.43289,
        "lon": -63.24811
      },
      {
        "name": "Villa Ocampo",
        "lat": -28.48726,
        "lon": -59.35421
      },
      {
        "name": "Villa Ortúzar",
        "lat": -34.57973,
        "lon": -58.46829
      },
      {
        "name": "Villa Paula de Sarmiento",
        "lat": -31.4933,
        "lon": -68.53838
      },
      {
        "name": "Villa Regina",
        "lat": -39.09631,
        "lon": -67.08374
      },
      {
        "name": "Villa Santa Rita",
        "lat": -34.61082,
        "lon": -58.481
      },
      {
        "name": "Villa Sarmiento",
        "lat": -34.63364,
        "lon": -58.57047
      },
      {
        "name": "Villa de Mayo",
        "lat": -34.5108,
        "lon": -58.68059
      },
      {
        "name": "Villa Ángela",
        "lat": -27.57679,
        "lon": -60.71114
      },
      {
        "name": "Villaguay",
        "lat": -31.86767,
        "lon": -59.02701
      },
      {
        "name": "Yerba Buena",
        "lat": -26.81298,
        "lon": -65.29543
      },
      {
        "name": "Zapala",
        "lat": -38.90056,
        "lon": -70.06674
      },
      {
        "name": "Zárate",
        "lat": -34.09584,
        "lon": -59.02423
      }
    ]
  },
  {
    "code": "AM",
    "name": "Armenia",
    "capital": "Yerevan",
    "currency": "AMD",
    "population": 3076200,
    "cities": [
      {
        "name": "Abovyan",
        "lat": 40.2717,
        "lon": 44.63342
      },
      {
        "name": "Ajapnyak",
        "lat": 40.19917,
        "lon": 44.47056
      },
      {
        "name": "Arabkir",
        "lat": 40.20624,
        "lon": 44.50365
      },
      {
        "name": "Ararat",
        "lat": 39.85494,
        "lon": 44.6947
      },
      {
        "name": "Armavir",
        "lat": 40.15553,
        "lon": 44.0388
      },
      {
        "name": "Artashat",
        "lat": 39.95484,
        "lon": 44.54874
      },
      {
        "name": "Artik",
        "lat": 40.61918,
        "lon": 43.97207
      },
      {
        "name": "Ashtarak",
        "lat": 40.2976,
        "lon": 44.36152
      },
      {
        "name": "Avan",
        "lat": 40.21436,
        "lon": 44.57846
      },
      {
        "name": "Charentsavan",
        "lat": 40.40289,
        "lon": 44.64447
      },
      {
        "name": "Davtashen",
        "lat": 40.21642,
        "lon": 44.48088
      },
      {
        "name": "Dilijan",
        "lat": 40.74037,
        "lon": 44.86344
      },
      {
        "name": "Erebuni",
        "lat": 40.13309,
        "lon": 44.53009
      },
      {
        "name": "Gavar",
        "lat": 40.35398,
        "lon": 45.12386
      },
      {
        "name": "Goris",
        "lat": 39.51111,
        "lon": 46.34168
      },
      {
        "name": "Gyumri",
        "lat": 40.79305,
        "lon": 43.84635
      },
      {
        "name": "Hrazdan",
        "lat": 40.5169,
        "lon": 44.75591
      },
      {
        "name": "Ijevan",
        "lat": 40.88037,
        "lon": 45.14776
      },
      {
        "name": "Kanaker-Zeytun",
        "lat": 40.22,
        "lon": 44.53833
      },
      {
        "name": "Kapan",
        "lat": 39.20762,
        "lon": 46.40678
      },
      {
        "name": "Kentron",
        "lat": 40.17806,
        "lon": 44.51303
      },
      {
        "name": "Malatia-Sebastia",
        "lat": 40.17396,
        "lon": 44.4457
      },
      {
        "name": "Masis",
        "lat": 40.06595,
        "lon": 44.43669
      },
      {
        "name": "Nor Nork",
        "lat": 40.19661,
        "lon": 44.5669
      },
      {
        "name": "Sevan",
        "lat": 40.548,
        "lon": 44.95314
      },
      {
        "name": "Shengavit",
        "lat": 40.1557,
        "lon": 44.4779
      },
      {
        "name": "Vagharshapat",
        "lat": 40.16557,
        "lon": 44.29462
      },
      {
        "name": "Vanadzor",
        "lat": 40.8074,
        "lon": 44.49704
      },
      {
        "name": "Yerevan",
        "lat": 40.17765,
        "lon": 44.5126
      }
    ]
  },
  {
    "code": "AW",
    "name": "Aruba",
    "capital": "Oranjestad",
    "currency": "AWG",
    "population": 107566,
    "cities": [
      {
        "name": "Noord",
        "lat": 12.56596,
        "lon": -70.03198
      },
      {
        "name": "Oranjestad",
        "lat": 12.52398,
        "lon": -70.02703
      },
      {
        "name": "San Nicolas",
        "lat": 12.43624,
        "lon": -69.90713
      },
      {
        "name": "Tanki Leendert",
        "lat": 12.53914,
        "lon": -70.02004
      }
    ]
  },
  {
    "code": "AU",
    "name": "Australia",
    "capital": "Canberra",
    "currency": "AUD",
    "population": 27536874,
    "cities": [
      {
        "name": "Adelaide",
        "lat": -34.92866,
        "lon": 138.59863
      },
      {
        "name": "Adelaide Hills",
        "lat": -34.91119,
        "lon": 138.70735
      },
      {
        "name": "Adelaide city centre",
        "lat": -34.92873,
        "lon": 138.60334
      },
      {
        "name": "Albany",
        "lat": -35.02692,
        "lon": 117.88369
      },
      {
        "name": "Albany Creek",
        "lat": -27.35364,
        "lon": 152.96848
      },
      {
        "name": "Alexandra Hills",
        "lat": -27.53221,
        "lon": 153.22889
      },
      {
        "name": "Alice Springs",
        "lat": -23.69748,
        "lon": 133.88362
      },
      {
        "name": "Altona Meadows",
        "lat": -37.88413,
        "lon": 144.78367
      },
      {
        "name": "Armidale",
        "lat": -30.50123,
        "lon": 151.66553
      },
      {
        "name": "Ascot Vale",
        "lat": -37.77988,
        "lon": 144.92276
      },
      {
        "name": "Ashfield",
        "lat": -33.88834,
        "lon": 151.12274
      },
      {
        "name": "Auburn",
        "lat": -33.85,
        "lon": 151.03333
      },
      {
        "name": "Australind",
        "lat": -33.2792,
        "lon": 115.71504
      },
      {
        "name": "Bacchus Marsh",
        "lat": -37.67268,
        "lon": 144.43829
      },
      {
        "name": "Bairnsdale",
        "lat": -37.82289,
        "lon": 147.61041
      },
      {
        "name": "Baldivis",
        "lat": -32.32889,
        "lon": 115.83047
      },
      {
        "name": "Ballajura",
        "lat": -31.84062,
        "lon": 115.89549
      },
      {
        "name": "Ballarat",
        "lat": -37.56622,
        "lon": 143.84957
      },
      {
        "name": "Balwyn North",
        "lat": -37.79086,
        "lon": 145.09386
      },
      {
        "name": "Bankstown",
        "lat": -33.91667,
        "lon": 151.03333
      },
      {
        "name": "Banora Point",
        "lat": -28.21298,
        "lon": 153.53634
      },
      {
        "name": "Batemans Bay",
        "lat": -35.70658,
        "lon": 150.17541
      },
      {
        "name": "Bathurst",
        "lat": -33.41665,
        "lon": 149.5806
      },
      {
        "name": "Baulkham Hills",
        "lat": -33.75881,
        "lon": 150.99292
      },
      {
        "name": "Bendigo",
        "lat": -36.75818,
        "lon": 144.28024
      },
      {
        "name": "Bentleigh",
        "lat": -37.91806,
        "lon": 145.03544
      },
      {
        "name": "Bentleigh East",
        "lat": -37.91928,
        "lon": 145.05301
      },
      {
        "name": "Berwick",
        "lat": -38.03333,
        "lon": 145.35
      },
      {
        "name": "Bexley",
        "lat": -33.95,
        "lon": 151.11667
      },
      {
        "name": "Blacktown",
        "lat": -33.76667,
        "lon": 150.91667
      },
      {
        "name": "Boronia",
        "lat": -37.86667,
        "lon": 145.28333
      },
      {
        "name": "Bracken Ridge",
        "lat": -27.3171,
        "lon": 153.03097
      },
      {
        "name": "Brighton",
        "lat": -37.90561,
        "lon": 145.00279
      },
      {
        "name": "Brighton East",
        "lat": -37.90232,
        "lon": 145.01734
      },
      {
        "name": "Brisbane",
        "lat": -27.46794,
        "lon": 153.02809
      },
      {
        "name": "Broken Hill",
        "lat": -31.9652,
        "lon": 141.4512
      },
      {
        "name": "Brunswick",
        "lat": -37.76667,
        "lon": 144.96667
      },
      {
        "name": "Buderim",
        "lat": -26.68443,
        "lon": 153.05705
      },
      {
        "name": "Bunbury",
        "lat": -33.32711,
        "lon": 115.64137
      },
      {
        "name": "Bundaberg",
        "lat": -24.86621,
        "lon": 152.3479
      },
      {
        "name": "Bundoora",
        "lat": -37.69825,
        "lon": 145.05967
      },
      {
        "name": "Burnie",
        "lat": -41.05584,
        "lon": 145.90375
      },
      {
        "name": "Burwood",
        "lat": -33.88333,
        "lon": 151.1
      },
      {
        "name": "Busselton",
        "lat": -33.65249,
        "lon": 115.3455
      },
      {
        "name": "Byford",
        "lat": -32.22099,
        "lon": 116.009
      },
      {
        "name": "Caboolture",
        "lat": -27.08465,
        "lon": 152.9511
      },
      {
        "name": "Cabramatta",
        "lat": -33.89743,
        "lon": 150.93446
      },
      {
        "name": "Cairns",
        "lat": -16.92366,
        "lon": 145.76613
      },
      {
        "name": "Calamvale",
        "lat": -27.62329,
        "lon": 153.04785
      },
      {
        "name": "Caloundra",
        "lat": -26.80346,
        "lon": 153.12195
      },
      {
        "name": "Camberwell",
        "lat": -37.84205,
        "lon": 145.0694
      },
      {
        "name": "Campsie",
        "lat": -33.9125,
        "lon": 151.10279
      },
      {
        "name": "Canberra",
        "lat": -35.28346,
        "lon": 149.12807
      },
      {
        "name": "Canning Vale",
        "lat": -32.05799,
        "lon": 115.91814
      },
      {
        "name": "Capalaba",
        "lat": -27.54333,
        "lon": 153.20287
      },
      {
        "name": "Carindale",
        "lat": -27.50578,
        "lon": 153.10236
      },
      {
        "name": "Carlingford",
        "lat": -33.78269,
        "lon": 151.04888
      },
      {
        "name": "Carlton",
        "lat": -37.8,
        "lon": 144.96667
      },
      {
        "name": "Carnegie",
        "lat": -37.89359,
        "lon": 145.05534
      },
      {
        "name": "Caroline Springs",
        "lat": -37.74124,
        "lon": 144.73631
      },
      {
        "name": "Carrum Downs",
        "lat": -38.09968,
        "lon": 145.17248
      },
      {
        "name": "Castle Hill",
        "lat": -33.73333,
        "lon": 151.0
      },
      {
        "name": "Casula",
        "lat": -33.95222,
        "lon": 150.89949
      },
      {
        "name": "Caulfield North",
        "lat": -37.8739,
        "lon": 145.02485
      },
      {
        "name": "Cessnock",
        "lat": -32.83211,
        "lon": 151.35623
      },
      {
        "name": "Chatswood",
        "lat": -33.8,
        "lon": 151.18333
      },
      {
        "name": "Cheltenham",
        "lat": -37.96944,
        "lon": 145.04806
      },
      {
        "name": "Cherrybrook",
        "lat": -33.72197,
        "lon": 151.04607
      },
      {
        "name": "City of Port Phillip",
        "lat": -37.83382,
        "lon": 144.93834
      },
      {
        "name": "Clayton",
        "lat": -37.91667,
        "lon": 145.11667
      },
      {
        "name": "Coburg",
        "lat": -37.75,
        "lon": 144.96667
      },
      {
        "name": "Coffs Harbour",
        "lat": -30.29626,
        "lon": 153.11351
      },
      {
        "name": "Coogee",
        "lat": -33.9205,
        "lon": 151.25522
      },
      {
        "name": "Coorparoo",
        "lat": -27.49325,
        "lon": 153.05826
      },
      {
        "name": "Corio",
        "lat": -38.08333,
        "lon": 144.38333
      },
      {
        "name": "Craigieburn",
        "lat": -37.6,
        "lon": 144.95
      },
      {
        "name": "Cranbourne",
        "lat": -38.11342,
        "lon": 145.28326
      },
      {
        "name": "Cranbourne East",
        "lat": -38.11531,
        "lon": 145.29814
      },
      {
        "name": "Cranbourne North",
        "lat": -38.07758,
        "lon": 145.29871
      },
      {
        "name": "Cranbourne West",
        "lat": -38.0965,
        "lon": 145.26707
      },
      {
        "name": "Cranebrook",
        "lat": -33.7061,
        "lon": 150.7094
      },
      {
        "name": "Cronulla",
        "lat": -34.06251,
        "lon": 151.14961
      },
      {
        "name": "Croydon",
        "lat": -37.8,
        "lon": 145.28333
      },
      {
        "name": "Dandenong",
        "lat": -37.98333,
        "lon": 145.2
      },
      {
        "name": "Dandenong North",
        "lat": -37.96649,
        "lon": 145.2081
      },
      {
        "name": "Darwin",
        "lat": -12.46113,
        "lon": 130.84185
      },
      {
        "name": "Deception Bay",
        "lat": -27.19354,
        "lon": 153.02631
      },
      {
        "name": "Dee Why",
        "lat": -33.7511,
        "lon": 151.28886
      },
      {
        "name": "Deer Park",
        "lat": -37.76722,
        "lon": 144.76657
      },
      {
        "name": "Devonport",
        "lat": -41.17695,
        "lon": 146.35152
      },
      {
        "name": "Dianella",
        "lat": -31.88822,
        "lon": 115.87186
      },
      {
        "name": "Docklands",
        "lat": -37.8149,
        "lon": 144.95052
      },
      {
        "name": "Doncaster",
        "lat": -37.78828,
        "lon": 145.12373
      },
      {
        "name": "Doncaster East",
        "lat": -37.78761,
        "lon": 145.14888
      },
      {
        "name": "Doreen",
        "lat": -37.6,
        "lon": 145.15
      },
      {
        "name": "Dubbo",
        "lat": -32.24295,
        "lon": 148.60484
      },
      {
        "name": "Duncraig",
        "lat": -31.83291,
        "lon": 115.7759
      },
      {
        "name": "Earlwood",
        "lat": -33.9209,
        "lon": 151.12506
      },
      {
        "name": "Eastwood",
        "lat": -33.79176,
        "lon": 151.08057
      },
      {
        "name": "Echuca",
        "lat": -36.14057,
        "lon": 144.75185
      },
      {
        "name": "Eight Mile Plains",
        "lat": -27.58333,
        "lon": 153.1
      },
      {
        "name": "Ellenbrook",
        "lat": -31.76737,
        "lon": 115.96936
      },
      {
        "name": "Eltham",
        "lat": -37.73333,
        "lon": 145.15
      },
      {
        "name": "Elwood",
        "lat": -37.88214,
        "lon": 144.98215
      },
      {
        "name": "Endeavour Hills",
        "lat": -37.97695,
        "lon": 145.25866
      },
      {
        "name": "Engadine",
        "lat": -34.06564,
        "lon": 151.01266
      },
      {
        "name": "Epping",
        "lat": -37.65,
        "lon": 145.03333
      },
      {
        "name": "Essendon",
        "lat": -37.74981,
        "lon": 144.9109
      },
      {
        "name": "Fairfield",
        "lat": -33.86667,
        "lon": 150.95
      },
      {
        "name": "Ferntree Gully",
        "lat": -37.88461,
        "lon": 145.29539
      },
      {
        "name": "Footscray",
        "lat": -37.8,
        "lon": 144.9
      },
      {
        "name": "Forest Lake",
        "lat": -27.62563,
        "lon": 152.96883
      },
      {
        "name": "Frankston",
        "lat": -38.14458,
        "lon": 145.12291
      },
      {
        "name": "Frankston East",
        "lat": -38.13333,
        "lon": 145.13333
      },
      {
        "name": "Frankston South",
        "lat": -38.16604,
        "lon": 145.13643
      },
      {
        "name": "Gawler",
        "lat": -34.60251,
        "lon": 138.74902
      },
      {
        "name": "Geelong",
        "lat": -38.14711,
        "lon": 144.36069
      },
      {
        "name": "Geraldton",
        "lat": -28.77897,
        "lon": 114.61459
      },
      {
        "name": "Gladstone",
        "lat": -23.84852,
        "lon": 151.25775
      },
      {
        "name": "Glen Iris",
        "lat": -37.86667,
        "lon": 145.06667
      },
      {
        "name": "Glen Waverley",
        "lat": -37.87811,
        "lon": 145.16476
      },
      {
        "name": "Glenferrie",
        "lat": -37.83333,
        "lon": 145.05
      },
      {
        "name": "Glenmore Park",
        "lat": -33.79068,
        "lon": 150.6693
      },
      {
        "name": "Glenroy",
        "lat": -37.7,
        "lon": 144.93333
      },
      {
        "name": "Glenwood",
        "lat": -33.73333,
        "lon": 150.93284
      },
      {
        "name": "Gold Coast",
        "lat": -28.00029,
        "lon": 153.43088
      },
      {
        "name": "Gosnells",
        "lat": -32.081,
        "lon": 116.0054
      },
      {
        "name": "Goulburn",
        "lat": -34.75155,
        "lon": 149.72086
      },
      {
        "name": "Grafton",
        "lat": -29.68104,
        "lon": 152.93394
      },
      {
        "name": "Granville",
        "lat": -33.8406,
        "lon": 151.00748
      },
      {
        "name": "Greenacre",
        "lat": -33.90034,
        "lon": 151.05563
      },
      {
        "name": "Greensborough",
        "lat": -37.70462,
        "lon": 145.10302
      },
      {
        "name": "Greenvale",
        "lat": -37.63333,
        "lon": 144.86667
      },
      {
        "name": "Greystanes",
        "lat": -33.82346,
        "lon": 150.94607
      },
      {
        "name": "Griffith",
        "lat": -34.28853,
        "lon": 146.05093
      },
      {
        "name": "Gympie",
        "lat": -26.18979,
        "lon": 152.66499
      },
      {
        "name": "Hampton Park",
        "lat": -38.03333,
        "lon": 145.25
      },
      {
        "name": "Hawthorn",
        "lat": -37.81992,
        "lon": 145.0358
      },
      {
        "name": "Hawthorn South",
        "lat": -37.8329,
        "lon": 145.0367
      },
      {
        "name": "Helensvale",
        "lat": -27.91828,
        "lon": 153.33275
      },
      {
        "name": "Hervey Bay",
        "lat": -25.28762,
        "lon": 152.76936
      },
      {
        "name": "Highton",
        "lat": -38.17058,
        "lon": 144.3114
      },
      {
        "name": "Hillside",
        "lat": -37.69047,
        "lon": 144.74172
      },
      {
        "name": "Hobart",
        "lat": -42.87936,
        "lon": 147.32941
      },
      {
        "name": "Hoppers Crossing",
        "lat": -37.88264,
        "lon": 144.7003
      },
      {
        "name": "Hornsby",
        "lat": -33.70244,
        "lon": 151.09931
      },
      {
        "name": "Horsham",
        "lat": -36.71131,
        "lon": 142.19981
      },
      {
        "name": "Hurstville",
        "lat": -33.9677,
        "lon": 151.10149
      },
      {
        "name": "Kalgoorlie",
        "lat": -30.74614,
        "lon": 121.4742
      },
      {
        "name": "Kallangur",
        "lat": -27.25204,
        "lon": 152.99226
      },
      {
        "name": "Keilor East",
        "lat": -37.73261,
        "lon": 144.86504
      },
      {
        "name": "Kellyville",
        "lat": -33.71028,
        "lon": 150.95095
      },
      {
        "name": "Kensington",
        "lat": -33.92019,
        "lon": 151.22241
      },
      {
        "name": "Kew",
        "lat": -37.80639,
        "lon": 145.03086
      },
      {
        "name": "Keysborough",
        "lat": -37.99116,
        "lon": 145.17385
      },
      {
        "name": "Kingsford",
        "lat": -33.92399,
        "lon": 151.22749
      },
      {
        "name": "Kirwan",
        "lat": -19.30323,
        "lon": 146.72531
      },
      {
        "name": "Kogarah",
        "lat": -33.9681,
        "lon": 151.13564
      },
      {
        "name": "Kwinana",
        "lat": -32.23013,
        "lon": 115.78128
      },
      {
        "name": "Labrador",
        "lat": -27.94402,
        "lon": 153.39815
      },
      {
        "name": "Lakemba",
        "lat": -33.91972,
        "lon": 151.07592
      },
      {
        "name": "Lalor",
        "lat": -37.66667,
        "lon": 145.01667
      },
      {
        "name": "Landsdale",
        "lat": -31.8075,
        "lon": 115.86599
      },
      {
        "name": "Langwarrin",
        "lat": -38.16667,
        "lon": 145.16667
      },
      {
        "name": "Lara",
        "lat": -38.02388,
        "lon": 144.40617
      },
      {
        "name": "Launceston",
        "lat": -41.43876,
        "lon": 147.13467
      },
      {
        "name": "Lidcombe",
        "lat": -33.86436,
        "lon": 151.0397
      },
      {
        "name": "Lilydale",
        "lat": -37.75,
        "lon": 145.35
      },
      {
        "name": "Liverpool",
        "lat": -33.91938,
        "lon": 150.92588
      },
      {
        "name": "Logan City",
        "lat": -27.63917,
        "lon": 153.10944
      },
      {
        "name": "Mackay",
        "lat": -21.15345,
        "lon": 149.16554
      },
      {
        "name": "Maitland",
        "lat": -32.73308,
        "lon": 151.5574
      },
      {
        "name": "Malvern East",
        "lat": -37.87397,
        "lon": 145.04253
      },
      {
        "name": "Mandurah",
        "lat": -32.5269,
        "lon": 115.7217
      },
      {
        "name": "Manly",
        "lat": -33.79798,
        "lon": 151.28826
      },
      {
        "name": "Maroochydore",
        "lat": -26.66008,
        "lon": 153.09953
      },
      {
        "name": "Maroubra",
        "lat": -33.95,
        "lon": 151.23333
      },
      {
        "name": "Marrickville",
        "lat": -33.90741,
        "lon": 151.15546
      },
      {
        "name": "Maryborough",
        "lat": -25.54073,
        "lon": 152.70493
      },
      {
        "name": "Mascot",
        "lat": -33.92598,
        "lon": 151.19347
      },
      {
        "name": "Melbourne",
        "lat": -37.814,
        "lon": 144.96332
      },
      {
        "name": "Melbourne City Centre",
        "lat": -37.81501,
        "lon": 144.96657
      },
      {
        "name": "Mernda",
        "lat": -37.60075,
        "lon": 145.09555
      },
      {
        "name": "Merrylands",
        "lat": -33.83333,
        "lon": 150.98333
      },
      {
        "name": "Mildura",
        "lat": -34.18551,
        "lon": 142.16251
      },
      {
        "name": "Mill Park",
        "lat": -37.66667,
        "lon": 145.06667
      },
      {
        "name": "Miranda",
        "lat": -34.03857,
        "lon": 151.10005
      },
      {
        "name": "Mitcham",
        "lat": -37.81667,
        "lon": 145.2
      },
      {
        "name": "Moonee Ponds",
        "lat": -37.76667,
        "lon": 144.91667
      },
      {
        "name": "Mooroolbark",
        "lat": -37.78247,
        "lon": 145.31682
      },
      {
        "name": "Morayfield",
        "lat": -27.10876,
        "lon": 152.94907
      },
      {
        "name": "Morley",
        "lat": -31.88775,
        "lon": 115.9099
      },
      {
        "name": "Mornington",
        "lat": -38.21792,
        "lon": 145.03876
      },
      {
        "name": "Morphett Vale",
        "lat": -35.13333,
        "lon": 138.51667
      },
      {
        "name": "Mosman",
        "lat": -33.83902,
        "lon": 151.23956
      },
      {
        "name": "Mount Barker",
        "lat": -35.06667,
        "lon": 138.86667
      },
      {
        "name": "Mount Druitt",
        "lat": -33.76667,
        "lon": 150.81667
      },
      {
        "name": "Mount Eliza",
        "lat": -38.18333,
        "lon": 145.08333
      },
      {
        "name": "Mount Gambier",
        "lat": -37.8318,
        "lon": 140.77919
      },
      {
        "name": "Mount Isa",
        "lat": -20.72523,
        "lon": 139.49727
      },
      {
        "name": "Mount Martha",
        "lat": -38.26667,
        "lon": 145.01667
      },
      {
        "name": "Mount Waverley",
        "lat": -37.87709,
        "lon": 145.12939
      },
      {
        "name": "Mulgrave",
        "lat": -37.92845,
        "lon": 145.17708
      },
      {
        "name": "Muswellbrook",
        "lat": -32.26118,
        "lon": 150.89009
      },
      {
        "name": "Narangba",
        "lat": -27.20338,
        "lon": 152.95923
      },
      {
        "name": "Narre Warren",
        "lat": -38.03333,
        "lon": 145.3
      },
      {
        "name": "Narre Warren South",
        "lat": -38.04369,
        "lon": 145.2923
      },
      {
        "name": "Nerang",
        "lat": -27.98941,
        "lon": 153.33633
      },
      {
        "name": "Newcastle",
        "lat": -32.92953,
        "lon": 151.7801
      },
      {
        "name": "Noble Park",
        "lat": -37.96667,
        "lon": 145.16667
      },
      {
        "name": "North Lakes",
        "lat": -27.22426,
        "lon": 153.02075
      },
      {
        "name": "North Melbourne",
        "lat": -37.79798,
        "lon": 144.94512
      },
      {
        "name": "Northcote",
        "lat": -37.76667,
        "lon": 145.0
      },
      {
        "name": "Officer",
        "lat": -38.05916,
        "lon": 145.40947
      },
      {
        "name": "Orange",
        "lat": -33.28397,
        "lon": 149.10018
      },
      {
        "name": "Pacific Pines",
        "lat": -27.93994,
        "lon": 153.31436
      },
      {
        "name": "Pakenham",
        "lat": -38.07018,
        "lon": 145.47411
      },
      {
        "name": "Palm Beach",
        "lat": -28.11694,
        "lon": 153.46584
      },
      {
        "name": "Palmerston",
        "lat": -12.48602,
        "lon": 130.9833
      },
      {
        "name": "Parafield Gardens",
        "lat": -34.78254,
        "lon": 138.61077
      },
      {
        "name": "Paralowie",
        "lat": -34.75705,
        "lon": 138.60819
      },
      {
        "name": "Parramatta",
        "lat": -33.8178,
        "lon": 151.00348
      },
      {
        "name": "Pascoe Vale",
        "lat": -37.73333,
        "lon": 144.93333
      },
      {
        "name": "Perth",
        "lat": -31.95224,
        "lon": 115.8614
      },
      {
        "name": "Point Cook",
        "lat": -37.91482,
        "lon": 144.75088
      },
      {
        "name": "Port Hedland",
        "lat": -20.31215,
        "lon": 118.61059
      },
      {
        "name": "Port Macquarie",
        "lat": -31.43084,
        "lon": 152.90894
      },
      {
        "name": "Port Melbourne",
        "lat": -37.83961,
        "lon": 144.94228
      },
      {
        "name": "Preston",
        "lat": -37.75,
        "lon": 145.01667
      },
      {
        "name": "Prestons",
        "lat": -33.94185,
        "lon": 150.8717
      },
      {
        "name": "Punchbowl",
        "lat": -33.92893,
        "lon": 151.05111
      },
      {
        "name": "Quakers Hill",
        "lat": -33.73333,
        "lon": 150.88333
      },
      {
        "name": "Randwick",
        "lat": -33.91439,
        "lon": 151.24895
      },
      {
        "name": "Redbank Plains",
        "lat": -27.64613,
        "lon": 152.85965
      },
      {
        "name": "Reservoir",
        "lat": -37.71667,
        "lon": 145.0
      },
      {
        "name": "Richmond",
        "lat": -37.81819,
        "lon": 145.00176
      },
      {
        "name": "Ringwood",
        "lat": -37.81667,
        "lon": 145.23333
      },
      {
        "name": "Robina",
        "lat": -28.07071,
        "lon": 153.39329
      },
      {
        "name": "Rochedale South",
        "lat": -27.59521,
        "lon": 153.12332
      },
      {
        "name": "Rockdale",
        "lat": -33.95,
        "lon": 151.13333
      },
      {
        "name": "Rockhampton",
        "lat": -23.38032,
        "lon": 150.50595
      },
      {
        "name": "Rockingham",
        "lat": -32.27682,
        "lon": 115.72978
      },
      {
        "name": "Rowville",
        "lat": -37.93333,
        "lon": 145.23333
      },
      {
        "name": "Roxburgh Park",
        "lat": -37.62581,
        "lon": 144.92555
      },
      {
        "name": "Ryde",
        "lat": -33.8188,
        "lon": 151.1062
      },
      {
        "name": "Saint Albans",
        "lat": -37.73333,
        "lon": 144.8
      },
      {
        "name": "Saint Ives",
        "lat": -33.72976,
        "lon": 151.15977
      },
      {
        "name": "Saint Kilda",
        "lat": -37.8676,
        "lon": 144.98099
      },
      {
        "name": "Scarborough",
        "lat": -31.89578,
        "lon": 115.76431
      },
      {
        "name": "Seaford",
        "lat": -38.1,
        "lon": 145.13333
      },
      {
        "name": "Seven Hills",
        "lat": -33.78333,
        "lon": 150.93333
      },
      {
        "name": "Shepparton",
        "lat": -36.38047,
        "lon": 145.39867
      },
      {
        "name": "South Morang",
        "lat": -37.65,
        "lon": 145.1
      },
      {
        "name": "South Yarra",
        "lat": -37.83834,
        "lon": 144.99149
      },
      {
        "name": "Southbank",
        "lat": -37.8228,
        "lon": 144.96434
      },
      {
        "name": "Southport",
        "lat": -27.96724,
        "lon": 153.39796
      },
      {
        "name": "Springfield Lakes",
        "lat": -27.66757,
        "lon": 152.92488
      },
      {
        "name": "Springvale",
        "lat": -37.94853,
        "lon": 145.15274
      },
      {
        "name": "St Albans",
        "lat": -37.74496,
        "lon": 144.80049
      },
      {
        "name": "St Clair",
        "lat": -33.79728,
        "lon": 150.7847
      },
      {
        "name": "Strathfield",
        "lat": -33.88096,
        "lon": 151.07986
      },
      {
        "name": "Sunbury",
        "lat": -37.57742,
        "lon": 144.72607
      },
      {
        "name": "Sunnybank Hills",
        "lat": -27.61025,
        "lon": 153.05388
      },
      {
        "name": "Sunshine Coast",
        "lat": -26.65682,
        "lon": 153.07955
      },
      {
        "name": "Sunshine West",
        "lat": -37.79117,
        "lon": 144.81637
      },
      {
        "name": "Surfers Paradise",
        "lat": -28.00274,
        "lon": 153.42999
      },
      {
        "name": "Surry Hills",
        "lat": -33.88374,
        "lon": 151.21282
      },
      {
        "name": "Sydney",
        "lat": -33.86785,
        "lon": 151.20732
      },
      {
        "name": "Sydney Central Business District",
        "lat": -33.86482,
        "lon": 151.20773
      },
      {
        "name": "Tamworth",
        "lat": -31.09048,
        "lon": 150.92905
      },
      {
        "name": "Taree",
        "lat": -31.91099,
        "lon": 152.45387
      },
      {
        "name": "Tarneit",
        "lat": -37.83634,
        "lon": 144.65952
      },
      {
        "name": "Taylors Hill",
        "lat": -37.70988,
        "lon": 144.75483
      },
      {
        "name": "Taylors Lakes",
        "lat": -37.69863,
        "lon": 144.78631
      },
      {
        "name": "Templestowe",
        "lat": -37.75405,
        "lon": 145.14864
      },
      {
        "name": "The Gap",
        "lat": -27.44187,
        "lon": 152.93861
      },